scrape_time,page_date,page_hour,bay_id,bay_name,lat,lon,jellyfish_lab,jellyfish_lab2,jellyfish_icon,jellyfish_list
2023-10-02 10:27:00.396381,02/10/2023,12:00,0,Platja Gran,42.427199628058,3.1607680066534,Fora de temporada,_FORA_DE_TEMPORADA_,icono_-32(46).png,[]
2023-10-02 10:27:05.326736,02/10/2023,12:00,3,Platja de Grifeu,42.381122572465,3.155852154311,Fora de temporada,_FORA_DE_TEMPORADA_,icono_-32(46).png,[]
2023-10-02 10:27:07.070392,02/10/2023,12:00,4,Platja del Port,42.371389834866,3.1603341080741,Fora de temporada,_FORA_DE_TEMPORADA_,icono_-32(46).png,[]
2023-10-02 10:27:12.633412,02/10/2023,12:00,7,Platja del Port de la Vall,42.343017800844,3.1860476518737,Fora de temporada,_FORA_DE_TEMPORADA_,icono_-32(46).png,[]
2023-10-02 10:27:14.370237,02/10/2023,12:00,8,Platja del Port de la Selva,42.336064685865,3.2022324515734,Fora de temporada,_FORA_DE_TEMPORADA_,icono_-32(46).png,[]
2023-10-02 10:27:19.552740,02/10/2023,12:00,11,Platja d'en Ros,42.284555920494,3.2877098066108,Fora de temporada,_FORA_DE_TEMPORADA_,icono_-32(46).png,[]
2023-10-02 10:27:21.211530,02/10/2023,12:00,12,Platja Gran,42.288577711645,3.2783761325292,Fora de temporada,_FORA_DE_TEMPORADA_,icono_-32(46).png,[]
2023-10-02 10:27:22.775616,02/10/2023,12:00,13,Platja es Llané Gran,42.284387572183,3.2755801750091,Fora de temporada,_FORA_DE_TEMPORADA_,icono_-32(46).png,[]
2023-10-02 10:27:27.144052,02/10/2023,12:00,15,Platja de l'Almadrava,42.240751820077,3.2073699212645,Fora de temporada,_FORA_DE_TEMPORADA_,icono_-32(46).png,[]
2023-10-02 10:27:28.948684,02/10/2023,12:00,16,Platja de Canyelles Petites,42.247093292781,3.1965417444188,Fora de temporada,_FORA_DE_TEMPORADA_,icono_-32(46).png,[]
2023-10-02 10:27:30.744804,02/10/2023,12:00,17,Platja dels Palangrers,42.250548996256,3.1817995255545,Fora de temporada,_FORA_DE_TEMPORADA_,icono_-32(46).png,[]
2023-10-02 10:27:32.515588,02/10/2023,12:00,18,Platja de la Punta,42.259434612085,3.1783333092279,Fora de temporada,_FORA_DE_TEMPORADA_,icono_-32(46).png,[]
2023-10-02 10:27:37.008574,02/10/2023,12:00,20,Platja del Rastrell - Nova,42.264444593098,3.1707692709824,Fora de temporada,_FORA_DE_TEMPORADA_,icono_-32(46).png,[]
2023-10-02 10:27:39.905178,02/10/2023,12:00,22,Platja de Santa Margarida  - Salatar,42.261253114072,3.1539925579586,Fora de temporada,_FORA_DE_TEMPORADA_,icono_-32(46).png,[]
2023-10-02 10:27:41.903215,02/10/2023,12:00,23,Platja de la Rubina,42.251760933133,3.1395920353183,Fora de temporada,_FORA_DE_TEMPORADA_,icono_-32(46).png,[]
2023-10-02 10:27:43.665186,02/10/2023,12:00,24,Platja d'Empuriabrava,42.237464998368,3.1266286044584,Fora de temporada,_FORA_DE_TEMPORADA_,icono_-32(46).png,[]
2023-10-02 10:27:47.895047,02/10/2023,12:00,27,Platja  Can Sopa- la Gola,42.188837944827,3.1110541681406,Fora de temporada,_FORA_DE_TEMPORADA_,icono_-32(46).png,[]
2023-10-02 10:27:53.339843,02/10/2023,12:00,32,Platja cal Cristià - Cortal de la Vila,42.162258112747,3.11307772045,Fora de temporada,_FORA_DE_TEMPORADA_,icono_-32(46).png,[]
2023-10-02 10:27:54.972067,02/10/2023,12:00,33,Platja del Cortal de la Devesa,42.155599630417,3.1158256368126,Fora de temporada,_FORA_DE_TEMPORADA_,icono_-32(46).png,[]
2023-10-02 10:27:57.708593,02/10/2023,12:00,35,Platja del Moll Grec,42.137970096999,3.1196657924795,Fora de temporada,_FORA_DE_TEMPORADA_,icono_-32(46).png,[]
2023-10-02 10:27:59.248331,02/10/2023,12:00,36,Platja de les Muscleres,42.133824742521,3.121932809189,Fora de temporada,_FORA_DE_TEMPORADA_,icono_-32(46).png,[]
2023-10-02 10:28:03.470419,02/10/2023,12:00,39,La Platja,42.12662468693,3.1335216908257,Fora de temporada,_FORA_DE_TEMPORADA_,icono_-32(46).png,[]
2023-10-02 10:28:05.062056,02/10/2023,12:00,40,Platja de Riells,42.115414022008,3.1390867881384,Fora de temporada,_FORA_DE_TEMPORADA_,icono_-32(46).png,[]
2023-10-02 10:28:06.716092,02/10/2023,12:00,41,Cala Montgó,42.107537981712,3.1691621950559,Fora de temporada,_FORA_DE_TEMPORADA_,icono_-32(46).png,[]
2023-10-02 10:28:09.111249,02/10/2023,12:00,42,Platja de l'Estartit,42.040530061014,3.1969067525409,Fora de temporada,_FORA_DE_TEMPORADA_,icono_-32(46).png,[]
2023-10-02 10:28:10.696988,02/10/2023,12:00,43,Platja de la Fonollera i Mas Pinell,42.012971643403,3.1958314021638,Fora de temporada,_FORA_DE_TEMPORADA_,icono_-32(46).png,[]
2023-10-02 10:28:12.474384,02/10/2023,12:00,44,Platja del Grau,41.998447010977,3.1992642984294,Fora de temporada,_FORA_DE_TEMPORADA_,icono_-32(46).png,[]
2023-10-02 10:28:14.107136,02/10/2023,12:00,45,Platja Gran,41.983150313938,3.2062663714709,Fora de temporada,_FORA_DE_TEMPORADA_,icono_-32(46).png,[]
2023-10-02 10:28:15.712586,02/10/2023,12:00,46,Platja del Racó,41.980598649101,3.2078032308232,Fora de temporada,_FORA_DE_TEMPORADA_,icono_-32(46).png,[]
2023-10-02 10:28:19.152088,02/10/2023,12:00,48,Platja de sa Riera,41.973054276372,3.2109650875895,Fora de temporada,_FORA_DE_TEMPORADA_,icono_-32(46).png,[]
2023-10-02 10:28:20.774834,02/10/2023,12:00,49,Platja de sa Tuna,41.960300674631,3.2297840768147,Fora de temporada,_FORA_DE_TEMPORADA_,icono_-32(46).png,[]
2023-10-02 10:28:24.050129,02/10/2023,12:00,51,Platja d'Aiguablava,41.933982188334,3.2162763587963,Fora de temporada,_FORA_DE_TEMPORADA_,icono_-32(46).png,[]
2023-10-02 10:28:25.565531,02/10/2023,12:00,52,Platja de Tamariu,41.917695609444,3.2077799279301,Fora de temporada,_FORA_DE_TEMPORADA_,icono_-32(46).png,[]
2023-10-02 10:28:27.123673,02/10/2023,12:00,53,Platja de Llafranc,41.893517976218,3.1942606254437,Fora de temporada,_FORA_DE_TEMPORADA_,icono_-32(46).png,[]
2023-10-02 10:28:28.781163,02/10/2023,12:00,54,Platja del Canadell,41.888494636878,3.1873506913736,Fora de temporada,_FORA_DE_TEMPORADA_,icono_-32(46).png,[]
2023-10-02 10:28:30.607698,02/10/2023,12:00,55,Platja de Port Bo,41.888273122042,3.1850960105222,Fora de temporada,_FORA_DE_TEMPORADA_,icono_-32(46).png,[]
2023-10-02 10:28:36.604538,02/10/2023,12:00,59,Cala Estreta,41.865891137418,3.1735242128186,Fora de temporada,_FORA_DE_TEMPORADA_,icono_-32(46).png,[]
2023-10-02 10:28:38.249521,02/10/2023,12:00,60,Platja de Castell,41.862484186982,3.1563454431433,Fora de temporada,_FORA_DE_TEMPORADA_,icono_-32(46).png,[]
2023-10-02 10:28:39.844230,02/10/2023,12:00,61,Platja de la Fosca,41.856395441636,3.1425721730605,Fora de temporada,_FORA_DE_TEMPORADA_,icono_-32(46).png,[]
2023-10-02 10:28:43.130338,02/10/2023,12:00,63,Platja del Morro del Vedell,41.848772644892,3.1376162876503,Fora de temporada,_FORA_DE_TEMPORADA_,icono_-32(46).png,[]
2023-10-02 10:28:44.709561,02/10/2023,12:00,64,Platja Gran,41.848044307087,3.1204972116535,Fora de temporada,_FORA_DE_TEMPORADA_,icono_-32(46).png,[]
2023-10-02 10:28:46.275813,02/10/2023,12:00,65,Platja d'es Monestrí,41.848634477964,3.1159087107782,Fora de temporada,_FORA_DE_TEMPORADA_,icono_-32(46).png,[]
2023-10-02 10:28:47.997133,02/10/2023,12:00,66,Platja de Sant Antoni,41.846464863631,3.1054731235656,Fora de temporada,_FORA_DE_TEMPORADA_,icono_-32(46).png,[]
2023-10-02 10:28:49.561446,02/10/2023,12:00,67,Platja de Torre Valentina,41.83955630846,3.0954648316799,Fora de temporada,_FORA_DE_TEMPORADA_,icono_-32(46).png,[]
2023-10-02 10:28:51.233026,02/10/2023,12:00,68,Cala Cristus- Ses Torretes,41.831303444695,3.0873115224906,Fora de temporada,_FORA_DE_TEMPORADA_,icono_-32(46).png,[]
2023-10-02 10:28:53.727036,02/10/2023,12:00,70,Cala Rovira,41.822017377494,3.0743907104439,Fora de temporada,_FORA_DE_TEMPORADA_,icono_-32(46).png,[]
2023-10-02 10:28:55.613598,02/10/2023,12:00,71,Platja Gran,41.808475716066,3.0665619312071,Fora de temporada,_FORA_DE_TEMPORADA_,icono_-32(46).png,[]
2023-10-02 10:28:57.200117,02/10/2023,12:00,72,Platja de sa Conca,41.798039659247,3.0611105254367,Fora de temporada,_FORA_DE_TEMPORADA_,icono_-32(46).png,[]
2023-10-02 10:28:59.145421,02/10/2023,12:00,73,Platja de Sant Pol,41.790765992455,3.0531000902406,Fora de temporada,_FORA_DE_TEMPORADA_,icono_-32(46).png,[]
2023-10-02 10:29:00.884414,02/10/2023,12:00,74,Platja de Sant Feliu,41.780073704422,3.0312025523598,Fora de temporada,_FORA_DE_TEMPORADA_,icono_-32(46).png,[]
2023-10-02 10:29:08.209617,02/10/2023,12:00,79,Platja de la Mar Menuda,41.721974701761,2.9380238400018,Fora de temporada,_FORA_DE_TEMPORADA_,icono_-32(46).png,[]
2023-10-02 10:29:09.912176,02/10/2023,12:00,80,Platja Gran,41.719540686424,2.9342512458012,Fora de temporada,_FORA_DE_TEMPORADA_,icono_-32(46).png,[]
2023-10-02 10:29:11.574574,02/10/2023,12:00,81,Platja d'es Codolar,41.715756719614,2.9325600886616,Fora de temporada,_FORA_DE_TEMPORADA_,icono_-32(46).png,[]
2023-10-02 10:29:14.841796,02/10/2023,12:00,83,Cala Canyelles,41.70415160028,2.8828006632717,Fora de temporada,_FORA_DE_TEMPORADA_,icono_-32(46).png,[]
2023-10-02 10:29:16.872486,02/10/2023,12:00,84,Platja de Lloret,41.697245339442,2.8464469669299,Fora de temporada,_FORA_DE_TEMPORADA_,icono_-32(46).png,[]
2023-10-02 10:29:18.618349,02/10/2023,12:00,85,Platja de Fenals,41.69446371372,2.8346044227506,Fora de temporada,_FORA_DE_TEMPORADA_,icono_-32(46).png,[]
2023-10-02 10:29:21.287077,02/10/2023,12:00,86,Platja de sa Boadella,41.69058425226,2.8242319479239,Fora de temporada,_FORA_DE_TEMPORADA_,icono_-32(46).png,[]
2023-10-02 10:29:23.023270,02/10/2023,12:00,87,Platja de Santa Cristina,41.687872392502,2.8179909180553,Fora de temporada,_FORA_DE_TEMPORADA_,icono_-32(46).png,[]
2023-10-02 10:29:24.573007,02/10/2023,12:00,88,Cala de Sant Francesc,41.678793861428,2.8073596508894,Fora de temporada,_FORA_DE_TEMPORADA_,icono_-32(46).png,[]
2023-10-02 10:29:26.180034,02/10/2023,12:00,89,Platja de Blanes,41.673644217732,2.7932230707804,Fora de temporada,_FORA_DE_TEMPORADA_,icono_-32(46).png,[]
2023-10-02 10:29:28.325323,02/10/2023,12:00,90,Platja de s'Abanell,41.661376426198,2.7834371218386,Fora de temporada,_FORA_DE_TEMPORADA_,icono_-32(46).png,[]
2023-10-02 10:29:30.042519,02/10/2023,12:00,91,Platja de la Punta de la Tordera- de la Conca,41.649147111322,2.7753359991846,Fora de temporada,_FORA_DE_TEMPORADA_,icono_-32(46).png,[]
2023-10-02 10:29:32.651035,02/10/2023,12:00,93,Platja de Malgrat Centre,41.636775719344,2.7312784550594,Fora de temporada,_FORA_DE_TEMPORADA_,icono_-32(46).png,[]
2023-10-02 10:29:34.430844,02/10/2023,12:00,94,Platja de l'Astillero,41.636775719344,2.7312784550594,Fora de temporada,_FORA_DE_TEMPORADA_,icono_-32(46).png,[]
2023-10-02 10:29:36.253301,02/10/2023,12:00,95,Platja de Llevant - les Caletes,41.629016946748,2.714851506193,Fora de temporada,_FORA_DE_TEMPORADA_,icono_-32(46).png,[]
2023-10-02 10:29:37.884613,02/10/2023,12:00,96,Platja de les Dunes,41.629016738266,2.7147674705051,Fora de temporada,_FORA_DE_TEMPORADA_,icono_-32(46).png,[]
2023-10-02 10:29:39.536626,02/10/2023,12:00,97,Platja dels Pins,41.623467631667,2.7003508749835,Fora de temporada,_FORA_DE_TEMPORADA_,icono_-32(46).png,[]
2023-10-02 10:29:41.044370,02/10/2023,12:00,98,Platja dels Pescadors,41.616694804155,2.6772885679023,Fora de temporada,_FORA_DE_TEMPORADA_,icono_-32(46).png,[]
2023-10-02 10:29:43.575676,02/10/2023,12:00,100,Platja del Poblenou- la Riera,41.616694804155,2.6772885679023,Fora de temporada,_FORA_DE_TEMPORADA_,icono_-32(46).png,[]
2023-10-02 10:29:45.249524,02/10/2023,12:00,101,Platja Gran,0.0,-1.4887438971664,Fora de temporada,_FORA_DE_TEMPORADA_,icono_-32(46).png,[]
2023-10-02 10:29:46.850287,02/10/2023,12:00,102,Platja de Garbí,41.610197915626,2.6546736782755,Fora de temporada,_FORA_DE_TEMPORADA_,icono_-32(46).png,[]
2023-10-02 10:29:49.970219,02/10/2023,12:00,104,Platja de la Platjola i el Morer,41.6029153155,2.6299917264038,Fora de temporada,_FORA_DE_TEMPORADA_,icono_-32(46).png,[]
2023-10-02 10:29:52.548844,02/10/2023,12:00,106,Platja de les Barques,41.600942954914,2.6245069877988,Fora de temporada,_FORA_DE_TEMPORADA_,icono_-32(46).png,[]
2023-10-02 10:29:54.061463,02/10/2023,12:00,107,Platja de Can Villar,41.597751116242,2.6153459333312,Fora de temporada,_FORA_DE_TEMPORADA_,icono_-32(46).png,[]
2023-10-02 10:29:58.880911,02/10/2023,12:00,110,Platja de Canet,41.588061686279,2.5874609909206,Fora de temporada,_FORA_DE_TEMPORADA_,icono_-32(46).png,[]
2023-10-02 10:30:00.457272,02/10/2023,12:00,111,Platja de Cavaió,41.583795643622,2.5760191775077,Fora de temporada,_FORA_DE_TEMPORADA_,icono_-32(46).png,[]
2023-10-02 10:30:02.028542,02/10/2023,12:00,112,Platja de Cavaió,41.580455660735,2.5668159401585,Fora de temporada,_FORA_DE_TEMPORADA_,icono_-32(46).png,[]
2023-10-02 10:30:04.002984,02/10/2023,12:00,113,Platja de la Picòrdia,41.57634375796,2.5446518439592,Fora de temporada,_FORA_DE_TEMPORADA_,icono_-32(46).png,[]
2023-10-02 10:30:06.701803,02/10/2023,12:00,115,Platja de la Musclera,41.570409747343,2.5338626246285,Fora de temporada,_FORA_DE_TEMPORADA_,icono_-32(46).png,[]
2023-10-02 10:30:08.347904,02/10/2023,12:00,116,Platja del Kalima,41.568987063337,2.5295549831514,Fora de temporada,_FORA_DE_TEMPORADA_,icono_-32(46).png,[]
2023-10-02 10:30:10.072071,02/10/2023,12:00,117,Platja dels Tres Micos,41.567275547635,2.5251417013465,Fora de temporada,_FORA_DE_TEMPORADA_,icono_-32(46).png,[]
2023-10-02 10:30:11.851323,02/10/2023,12:00,118,Platja de Sant Vicenç,41.564019930101,2.5176938008672,Fora de temporada,_FORA_DE_TEMPORADA_,icono_-32(46).png,[]
2023-10-02 10:30:13.646177,02/10/2023,12:00,119,Platja de les Barques - l'Estació,41.556410809602,2.5012857035747,Fora de temporada,_FORA_DE_TEMPORADA_,icono_-32(46).png,[]
2023-10-02 10:30:16.325380,02/10/2023,12:00,121,Platja de Sant Simó,41.542009693885,2.4597702805891,Fora de temporada,_FORA_DE_TEMPORADA_,icono_-32(46).png,[]
2023-10-02 10:30:18.131591,02/10/2023,12:00,122,Platja del Callao,41.539106875639,2.4554306108427,Fora de temporada,_FORA_DE_TEMPORADA_,icono_-32(46).png,[]
2023-10-02 10:30:19.922539,02/10/2023,12:00,123,Platja del Varador,41.535309226105,2.4504755263813,Fora de temporada,_FORA_DE_TEMPORADA_,icono_-32(46).png,[]
2023-10-02 10:30:21.822703,02/10/2023,12:00,124,Platja de Ponent,41.52876774771,2.4406898650633,Fora de temporada,_FORA_DE_TEMPORADA_,icono_-32(46).png,[]
2023-10-02 10:30:24.574037,02/10/2023,12:00,126,Platja de Cabrera (Vinyals),41.507465534542,2.4048412901368,Fora de temporada,_FORA_DE_TEMPORADA_,icono_-32(46).png,[]
2023-10-02 10:30:28.472391,02/10/2023,12:00,128,Platja de l'Astillero - l'Almadrava,41.504417987185,2.3990578680924,Fora de temporada,_FORA_DE_TEMPORADA_,icono_-32(46).png,[]
2023-10-02 10:30:30.220514,02/10/2023,12:00,129,Platja de Ponent,41.498057623062,2.3852067867651,Fora de temporada,_FORA_DE_TEMPORADA_,icono_-32(46).png,[]
2023-10-02 10:30:32.007361,02/10/2023,12:00,130,Platja de Llevant,0.0,-1.4887438971664,Fora de temporada,_FORA_DE_TEMPORADA_,icono_-32(46).png,[]
2023-10-02 10:30:35.538618,02/10/2023,12:00,133,Platja del Pla de l'Ós- Descàrrega,41.487626235325,2.3554417154751,Fora de temporada,_FORA_DE_TEMPORADA_,icono_-32(46).png,[]
2023-10-02 10:30:38.887511,02/10/2023,12:00,135,Platja d'Ocata,41.477684685782,2.3199200941791,Fora de temporada,_FORA_DE_TEMPORADA_,icono_-32(46).png,[]
2023-10-02 10:30:40.526380,02/10/2023,12:00,136,Platja del Masnou,41.475108951044,2.3049162639625,Fora de temporada,_FORA_DE_TEMPORADA_,icono_-32(46).png,[]
2023-10-02 10:30:42.361366,02/10/2023,12:00,137,Platja de Monsolís -les Barques,41.468406238555,2.287060600628,Fora de temporada,_FORA_DE_TEMPORADA_,icono_-32(46).png,[]
2023-10-02 10:30:45.103960,02/10/2023,12:00,139,Platja de les Roques,41.464399760381,2.2772492978992,Fora de temporada,_FORA_DE_TEMPORADA_,icono_-32(46).png,[]
2023-10-02 10:30:47.754382,02/10/2023,12:00,141,Platja de Cristall,41.454099780717,2.2595480957504,Fora de temporada,_FORA_DE_TEMPORADA_,icono_-32(46).png,[]
2023-10-02 10:30:50.619507,02/10/2023,12:00,143,Platja dels Pescadors,41.446569998148,2.2512656852142,Fora de temporada,_FORA_DE_TEMPORADA_,icono_-32(46).png,[]
2023-10-02 10:30:55.354971,02/10/2023,12:00,147,Platja de Coco,41.438701968931,2.2450599158731,Fora de temporada,_FORA_DE_TEMPORADA_,icono_-32(46).png,[]
2023-10-02 10:30:57.766083,02/10/2023,12:00,149,Platja del Litoral,41.421982291685,2.2352372980518,Fora de temporada,_FORA_DE_TEMPORADA_,icono_-32(46).png,[]
2023-10-02 10:30:59.535923,02/10/2023,12:00,150,Platja del Fòrum,41.416807060406,2.2317919861506,Fora de temporada,_FORA_DE_TEMPORADA_,icono_-32(46).png,[]
2023-10-02 10:31:01.168409,02/10/2023,12:00,151,Zona de Banys Fòrum,41.409775136883,2.2268496750303,Fora de temporada,_FORA_DE_TEMPORADA_,icono_-32(46).png,[]
2023-10-02 10:31:02.975179,02/10/2023,12:00,152,Platja de Llevant,41.404818309454,2.2184500675217,Fora de temporada,_FORA_DE_TEMPORADA_,icono_-32(46).png,[]
2023-10-02 10:31:04.551271,02/10/2023,12:00,153,Platja de la Nova Mar Bella,41.401868963879,2.2152314154427,Fora de temporada,_FORA_DE_TEMPORADA_,icono_-32(46).png,[]
2023-10-02 10:31:06.393246,02/10/2023,12:00,154,Platja de la Mar Bella,41.39828815496,2.211889092231,Fora de temporada,_FORA_DE_TEMPORADA_,icono_-32(46).png,[]
2023-10-02 10:31:08.166220,02/10/2023,12:00,155,Platja del Bogatell,41.394117638021,2.2066404017632,Fora de temporada,_FORA_DE_TEMPORADA_,icono_-32(46).png,[]
2023-10-02 10:31:10.256007,02/10/2023,12:00,156,Platja de la Nova Icària,41.390467569537,2.2024385871148,Fora de temporada,_FORA_DE_TEMPORADA_,icono_-32(46).png,[]
2023-10-02 10:31:12.031649,02/10/2023,12:00,157,Platja del Somorrostro,41.382120638522,2.1951136878575,Fora de temporada,_FORA_DE_TEMPORADA_,icono_-32(46).png,[]
2023-10-02 10:31:13.708646,02/10/2023,12:00,158,Platja de la Barceloneta,41.380574709835,2.1943075589302,Fora de temporada,_FORA_DE_TEMPORADA_,icono_-32(46).png,[]
2023-10-02 10:31:15.430232,02/10/2023,12:00,159,Platja de Sant Miquel,41.376248597736,2.1913832829702,Fora de temporada,_FORA_DE_TEMPORADA_,icono_-32(46).png,[]
2023-10-02 10:31:17.092907,02/10/2023,12:00,160,Platja de Sant Sebastià,41.372327471678,2.1896979659343,Fora de temporada,_FORA_DE_TEMPORADA_,icono_-32(46).png,[]
2023-10-02 10:31:19.659971,02/10/2023,12:00,162,Platja del Remolar- Pineda de Cal Francès,41.275028516373,2.0662013319061,Fora de temporada,_FORA_DE_TEMPORADA_,icono_-32(46).png,[]
2023-10-02 10:31:21.553004,02/10/2023,12:00,163,Platja de Gavà,41.26581617619,2.0199046987666,Fora de temporada,_FORA_DE_TEMPORADA_,icono_-32(46).png,[]
2023-10-02 10:31:23.115862,02/10/2023,12:00,164,Platja de la Pineda,41.263958952309,1.9925827273801,Fora de temporada,_FORA_DE_TEMPORADA_,icono_-32(46).png,[]
2023-10-02 10:31:24.750489,02/10/2023,12:00,165,Platja de les Lluminetes,41.264006354566,1.9754988576444,Fora de temporada,_FORA_DE_TEMPORADA_,icono_-32(46).png,[]
2023-10-02 10:31:26.542344,02/10/2023,12:00,166,Platja del Baixador,41.263775689677,1.9479260266039,Fora de temporada,_FORA_DE_TEMPORADA_,icono_-32(46).png,[]
2023-10-02 10:31:28.113563,02/10/2023,12:00,167,Platja de les Botigues,41.261775734073,1.9332153443612,Fora de temporada,_FORA_DE_TEMPORADA_,icono_-32(46).png,[]
2023-10-02 10:31:29.775011,02/10/2023,12:00,168,Platja del Garraf,41.252746506686,1.8079767382934,Fora de temporada,_FORA_DE_TEMPORADA_,icono_-32(46).png,[]
2023-10-02 10:31:31.412417,02/10/2023,12:00,169,Platja d'Aiguadolç,41.236223044103,1.827810941185,Fora de temporada,_FORA_DE_TEMPORADA_,icono_-32(46).png,[]
2023-10-02 10:31:33.142298,02/10/2023,12:00,170,Platja dels Balmins,41.23580612582,1.8205036540361,Fora de temporada,_FORA_DE_TEMPORADA_,icono_-32(46).png,[]
2023-10-02 10:31:34.736372,02/10/2023,12:00,171,Platja de Sant Sebastià,41.236205881866,1.8146971481653,Fora de temporada,_FORA_DE_TEMPORADA_,icono_-32(46).png,[]
2023-10-02 10:31:37.457395,02/10/2023,12:00,173,Platja de la Ribera,41.234365209654,1.8082868978651,Fora de temporada,_FORA_DE_TEMPORADA_,icono_-32(46).png,[]
2023-10-02 10:31:40.054946,02/10/2023,12:00,175,Platja de l'Estanyol,41.231825008401,1.7996107795283,Fora de temporada,_FORA_DE_TEMPORADA_,icono_-32(46).png,[]
2023-10-02 10:31:42.647682,02/10/2023,12:00,177,Platja de la Barra,41.228099902123,1.7922457424675,Fora de temporada,_FORA_DE_TEMPORADA_,icono_-32(46).png,[]
2023-10-02 10:31:44.335462,02/10/2023,12:00,178,Platja de Terramar,41.226462424175,1.789853891713,Fora de temporada,_FORA_DE_TEMPORADA_,icono_-32(46).png,[]
2023-10-02 10:31:47.054984,02/10/2023,12:00,180,Platja del Far de S. Cristòfol,41.215502334745,1.7388568480942,Fora de temporada,_FORA_DE_TEMPORADA_,icono_-32(46).png,[]
2023-10-02 10:31:48.781959,02/10/2023,12:00,181,Platja de Ribes-roges,41.211943848511,1.724909456349,Fora de temporada,_FORA_DE_TEMPORADA_,icono_-32(46).png,[]
2023-10-02 10:31:50.400954,02/10/2023,12:00,182,Platja d'Adarró,41.21134545456,1.7164520717704,Fora de temporada,_FORA_DE_TEMPORADA_,icono_-32(46).png,[]
2023-10-02 10:31:51.922968,02/10/2023,12:00,183,Platja de Sant Gervasi,41.210005976146,1.7118502189238,Fora de temporada,_FORA_DE_TEMPORADA_,icono_-32(46).png,[]
2023-10-02 10:31:54.491066,02/10/2023,12:00,185,Platja d'Ibersol,41.203626928879,1.6854025178517,Fora de temporada,_FORA_DE_TEMPORADA_,icono_-32(46).png,[]
2023-10-02 10:31:56.205208,02/10/2023,12:00,186,Platja Llarga,41.201178681595,1.6808360382307,Fora de temporada,_FORA_DE_TEMPORADA_,icono_-32(46).png,[]
2023-10-02 10:31:57.668951,02/10/2023,12:00,187,Platja de la Mota de Sant Pere,41.197974673287,1.6701076058795,Fora de temporada,_FORA_DE_TEMPORADA_,icono_-32(46).png,[]
2023-10-02 10:31:59.215046,02/10/2023,12:00,188,Platja de les Salines,41.195944207291,1.6573647433448,Fora de temporada,_FORA_DE_TEMPORADA_,icono_-32(46).png,[]
2023-10-02 10:32:00.878361,02/10/2023,12:00,189,Platja de les Gavines,41.19499223244,1.6460672206857,Fora de temporada,_FORA_DE_TEMPORADA_,icono_-32(46).png,[]
2023-10-02 10:32:02.652178,02/10/2023,12:00,190,Platja de Cunit Llevant,41.192959639893,1.6348878850593,Fora de temporada,_FORA_DE_TEMPORADA_,icono_-32(46).png,[]
2023-10-02 10:32:04.511303,02/10/2023,12:00,191,Platja de Segur de Calafell,41.188801150808,1.6006211928006,Fora de temporada,_FORA_DE_TEMPORADA_,icono_-32(46).png,[]
2023-10-02 10:32:06.067355,02/10/2023,12:00,192,Platja de l'Estany-Mas Mel,41.188150495747,1.5886396250873,Fora de temporada,_FORA_DE_TEMPORADA_,icono_-32(46).png,[]
2023-10-02 10:32:07.963309,02/10/2023,12:00,193,Platja de Calafell,41.18625839246,1.5710692123581,Fora de temporada,_FORA_DE_TEMPORADA_,icono_-32(46).png,[]
2023-10-02 10:32:09.817272,02/10/2023,12:00,194,Platja de Sant Salvador,41.182994372502,1.5427755564115,Fora de temporada,_FORA_DE_TEMPORADA_,icono_-32(46).png,[]
2023-10-02 10:32:11.779947,02/10/2023,12:00,195,Platja de Coma-ruga,41.180449389316,1.5240064481359,Fora de temporada,_FORA_DE_TEMPORADA_,icono_-32(46).png,[]
2023-10-02 10:32:13.514141,02/10/2023,12:00,196,Platja del Francàs,41.17535494276,1.5026740533088,Fora de temporada,_FORA_DE_TEMPORADA_,icono_-32(46).png,[]
2023-10-02 10:32:15.280131,02/10/2023,12:00,197,Platja de la Costa Daurada,41.170338915321,1.4889723359421,Fora de temporada,_FORA_DE_TEMPORADA_,icono_-32(46).png,[]
2023-10-02 10:32:19.998180,02/10/2023,12:00,200,Platja Llarga,41.165614769917,1.4661712099269,Fora de temporada,_FORA_DE_TEMPORADA_,icono_-32(46).png,[]
2023-10-02 10:32:21.762627,02/10/2023,12:00,201,Platja de Creixell,41.156025386379,1.4422848019115,Fora de temporada,_FORA_DE_TEMPORADA_,icono_-32(46).png,[]
2023-10-02 10:32:23.383417,02/10/2023,12:00,202,Platja dels Muntanyans,41.146268399657,1.4196724944992,Fora de temporada,_FORA_DE_TEMPORADA_,icono_-32(46).png,[]
2023-10-02 10:32:24.990093,02/10/2023,12:00,203,Platja del Barri Marítim,41.143486934269,1.4132571728329,Fora de temporada,_FORA_DE_TEMPORADA_,icono_-32(46).png,[]
2023-10-02 10:32:26.599463,02/10/2023,12:00,204,Platja de la Paella,41.139913156509,1.4062419906541,Fora de temporada,_FORA_DE_TEMPORADA_,icono_-32(46).png,[]
2023-10-02 10:32:28.045966,02/10/2023,12:00,205,Platja del Canyadell,41.132349213814,1.3902225852882,Fora de temporada,_FORA_DE_TEMPORADA_,icono_-32(46).png,[]
2023-10-02 10:32:29.730672,02/10/2023,12:00,206,Platja d'Altafulla,41.134370623023,1.3821312252341,Fora de temporada,_FORA_DE_TEMPORADA_,icono_-32(46).png,[]
2023-10-02 10:32:32.257590,02/10/2023,12:00,208,Platja de Tamarit,41.130248549515,1.3626114471976,Fora de temporada,_FORA_DE_TEMPORADA_,icono_-32(46).png,[]
2023-10-02 10:32:34.757707,02/10/2023,12:00,210,Platja de la Móra,41.127944515602,1.3469796024841,Fora de temporada,_FORA_DE_TEMPORADA_,icono_-32(46).png,[]
2023-10-02 10:32:38.632875,02/10/2023,12:00,213,Platja Llarga,41.128624032857,1.3038855528765,Fora de temporada,_FORA_DE_TEMPORADA_,icono_-32(46).png,[]
2023-10-02 10:32:43.321119,02/10/2023,12:00,217,Platja de la Savinosa,41.12271312207,1.2848955466845,Fora de temporada,_FORA_DE_TEMPORADA_,icono_-32(46).png,[]
2023-10-02 10:32:45.338493,02/10/2023,12:00,218,Platja de l'Arrabassada,41.118954578696,1.2762864073596,Fora de temporada,_FORA_DE_TEMPORADA_,icono_-32(46).png,[]
2023-10-02 10:32:47.034476,02/10/2023,12:00,219,Platja del Miracle,41.114194509063,1.2622258835189,Fora de temporada,_FORA_DE_TEMPORADA_,icono_-32(46).png,[]
2023-10-02 10:32:49.788749,02/10/2023,12:00,221,Platja de la Pineda,41.079563052673,1.1852750478943,Fora de temporada,_FORA_DE_TEMPORADA_,icono_-32(46).png,[]
2023-10-02 10:32:51.496971,02/10/2023,12:00,222,Platja del Racó,41.067382250887,1.1793974070461,Fora de temporada,_FORA_DE_TEMPORADA_,icono_-32(46).png,[]
2023-10-02 10:32:53.120307,02/10/2023,12:00,223,Cala Crancs,41.056423516786,1.1676809900815,Fora de temporada,_FORA_DE_TEMPORADA_,icono_-32(46).png,[]
2023-10-02 10:32:56.554739,02/10/2023,12:00,225,Platja Llarga,41.065320748526,1.1551280211854,Fora de temporada,_FORA_DE_TEMPORADA_,icono_-32(46).png,[]
2023-10-02 10:32:58.216969,02/10/2023,12:00,226,Platja Capellans,41.068271974443,1.1481900575559,Fora de temporada,_FORA_DE_TEMPORADA_,icono_-32(46).png,[]
2023-10-02 10:33:00.034297,02/10/2023,12:00,227,Platja de Llevant,41.073477083085,1.1352723017828,Fora de temporada,_FORA_DE_TEMPORADA_,icono_-32(46).png,[]
2023-10-02 10:33:01.742691,02/10/2023,12:00,228,Platja de Ponent,41.074876509675,1.1254841914737,Fora de temporada,_FORA_DE_TEMPORADA_,icono_-32(46).png,[]
2023-10-02 10:33:03.353294,02/10/2023,12:00,229,Platja del Cap de Sant Pere,41.072324958385,1.1142969062962,Fora de temporada,_FORA_DE_TEMPORADA_,icono_-32(46).png,[]
2023-10-02 10:33:04.880046,02/10/2023,12:00,230,Platja de Vilafortuny,41.069865092566,1.1021794964984,Fora de temporada,_FORA_DE_TEMPORADA_,icono_-32(46).png,[]
2023-10-02 10:33:06.447687,02/10/2023,12:00,231,Platja de l'Esquirol,41.066622925891,1.0923945279686,Fora de temporada,_FORA_DE_TEMPORADA_,icono_-32(46).png,[]
2023-10-02 10:33:08.029875,02/10/2023,12:00,232,Platja de Cavet,41.064245472214,1.0799552714078,Fora de temporada,_FORA_DE_TEMPORADA_,icono_-32(46).png,[]
2023-10-02 10:33:09.849341,02/10/2023,12:00,233,Platja del Prat d'en Forés-Regueral,41.065828136459,1.0690195243151,Fora de temporada,_FORA_DE_TEMPORADA_,icono_-32(46).png,[]
2023-10-02 10:33:11.479457,02/10/2023,12:00,234,Platja de la Riera,41.063580585685,1.0558872062892,Fora de temporada,_FORA_DE_TEMPORADA_,icono_-32(46).png,[]
2023-10-02 10:33:13.227149,02/10/2023,12:00,235,Platja de l'Horta de Santa Maria,41.064091512848,1.0525398813016,Fora de temporada,_FORA_DE_TEMPORADA_,icono_-32(46).png,[]
2023-10-02 10:33:14.770757,02/10/2023,12:00,236,Platja de la Llosa,41.063205543692,1.0464966148408,Fora de temporada,_FORA_DE_TEMPORADA_,icono_-32(46).png,[]
2023-10-02 10:33:16.493007,02/10/2023,12:00,237,Platja de l'Estany,41.269665774965,2.0427818633591,Fora de temporada,_FORA_DE_TEMPORADA_,icono_-32(46).png,[]
2023-10-02 10:33:18.378731,02/10/2023,12:00,238,Platja de l'Ardiaca,41.055755147124,1.0294986163483,Fora de temporada,_FORA_DE_TEMPORADA_,icono_-32(46).png,[]
2023-10-02 10:33:21.075671,02/10/2023,12:00,240,Platja de la Pixerota,41.044851709882,1.0056840642434,Fora de temporada,_FORA_DE_TEMPORADA_,icono_-32(46).png,[]
2023-10-02 10:33:22.613225,02/10/2023,12:00,241,Platja de la Porquerola,41.034623237399,0.97697954842933,Fora de temporada,_FORA_DE_TEMPORADA_,icono_-32(46).png,[]
2023-10-02 10:33:24.289171,02/10/2023,12:00,242,Platja de la Casa dels lladres,41.027906541309,0.96588557309922,Fora de temporada,_FORA_DE_TEMPORADA_,icono_-32(46).png,[]
2023-10-02 10:33:26.724199,02/10/2023,12:00,243,Cala del Vienesos-platja dels Espenyals,41.01652868413,0.95207202879475,Fora de temporada,_FORA_DE_TEMPORADA_,icono_-32(46).png,[]
2023-10-02 10:33:28.257577,02/10/2023,12:00,244,Platja Cristall,40.999130619831,0.93615625673566,Fora de temporada,_FORA_DE_TEMPORADA_,icono_-32(46).png,[]
2023-10-02 10:33:30.039948,02/10/2023,12:00,245,Platja de la Punta del riu,40.990535680876,0.93052815890304,Fora de temporada,_FORA_DE_TEMPORADA_,icono_-32(46).png,[]
2023-10-02 10:33:31.677788,02/10/2023,12:00,246,Platja de l'Arenal,40.987613406623,0.91582017449322,Fora de temporada,_FORA_DE_TEMPORADA_,icono_-32(46).png,[]
2023-10-02 10:33:33.245180,02/10/2023,12:00,247,Platja del Torn,40.97002027231,0.89343823361539,Fora de temporada,_FORA_DE_TEMPORADA_,icono_-32(46).png,[]
2023-10-02 10:33:34.881784,02/10/2023,12:00,248,Platja de l'Almadrava,40.939182506783,0.85796416867759,Fora de temporada,_FORA_DE_TEMPORADA_,icono_-32(46).png,[]
2023-10-02 10:33:36.580094,02/10/2023,12:00,249,Cala Calafató,40.9221357093,0.84129581336596,Fora de temporada,_FORA_DE_TEMPORADA_,icono_-32(46).png,[]
2023-10-02 10:33:38.265054,02/10/2023,12:00,250,Platja Sant Jordi d'Alfama,40.912094315636,0.83227822778743,Fora de temporada,_FORA_DE_TEMPORADA_,icono_-32(46).png,[]
2023-10-02 10:33:39.829111,02/10/2023,12:00,251,Cala Forn,40.908272916148,0.8264192381245,Fora de temporada,_FORA_DE_TEMPORADA_,icono_-32(46).png,[]
2023-10-02 10:33:41.567536,02/10/2023,12:00,252,Platja de Pixavaques,40.886862404168,0.80693133925294,Fora de temporada,_FORA_DE_TEMPORADA_,icono_-32(46).png,[]
2023-10-02 10:33:43.289150,02/10/2023,12:00,253,Platja de l'Alguer,40.88446739366,0.80556249285564,Fora de temporada,_FORA_DE_TEMPORADA_,icono_-32(46).png,[]
2023-10-02 10:33:48.190683,02/10/2023,12:00,256,Platja de Santa Llúcia,40.827900375872,0.74165134235169,Fora de temporada,_FORA_DE_TEMPORADA_,icono_-32(46).png,[]
2023-10-02 10:33:51.692617,02/10/2023,12:00,258,Platja del Cap Roig,40.821794398082,0.73252699060494,Fora de temporada,_FORA_DE_TEMPORADA_,icono_-32(46).png,[]
2023-10-02 10:33:53.416638,02/10/2023,12:00,259,Platja de les Avellanes,40.812628169567,0.71490187254377,Fora de temporada,_FORA_DE_TEMPORADA_,icono_-32(46).png,[]
2023-10-02 10:33:54.950627,02/10/2023,12:00,260,Platja de l'Arenal,40.793456626705,0.70428834230694,Fora de temporada,_FORA_DE_TEMPORADA_,icono_-32(46).png,[]
2023-10-02 10:33:56.639462,02/10/2023,12:00,261,Platja de la Marquesa,40.760417999771,0.80049202793842,Fora de temporada,_FORA_DE_TEMPORADA_,icono_-32(46).png,[]
2023-10-02 10:33:59.839686,02/10/2023,12:00,263,Platja de Riumar,40.730702029048,0.84200315331873,Fora de temporada,_FORA_DE_TEMPORADA_,icono_-32(46).png,[]
2023-10-02 10:34:02.869715,02/10/2023,12:00,265,Platja del Serrallo,40.67042521796,0.8272794665772,Fora de temporada,_FORA_DE_TEMPORADA_,icono_-32(46).png,[]
2023-10-02 10:34:06.227537,02/10/2023,12:00,267,Platja del Trabucador,40.623105864166,0.7385655924494,Fora de temporada,_FORA_DE_TEMPORADA_,icono_-32(46).png,[]
2023-10-02 10:34:09.661024,02/10/2023,12:00,269,Platja del Parc de Garbí,40.613661853592,0.59271661145727,Fora de temporada,_FORA_DE_TEMPORADA_,icono_-32(46).png,[]
2023-10-02 10:34:16.208079,02/10/2023,12:00,275,Platja de les Delícies,40.606377946137,0.58381861583436,Fora de temporada,_FORA_DE_TEMPORADA_,icono_-32(46).png,[]
2023-10-02 10:34:18.918907,02/10/2023,12:00,277,Platja de la Martinenca,40.572927028126,0.54682037719963,Fora de temporada,_FORA_DE_TEMPORADA_,icono_-32(46).png,[]
2023-10-02 10:34:20.591518,02/10/2023,12:00,278,Platja del Maricel,40.568761058929,0.53983812944421,Fora de temporada,_FORA_DE_TEMPORADA_,icono_-32(46).png,[]
2023-10-02 10:34:22.575326,02/10/2023,12:00,279,Platja de les Cases d'Alcanar-Marjal,40.545226788511,0.5243696664454,Fora de temporada,_FORA_DE_TEMPORADA_,icono_-32(46).png,[]
