scrape_time,page_date,page_hour,bay_id,bay_name,lat,lon,jellyfish_lab,jellyfish_lab2,jellyfish_icon,jellyfish_list
2025-08-08 07:24:33.082712,08/08/2025,09:00,0,Platja Gran,42.427199628058,3.1607680066534,Sense informació,_SENSE_INFORMACI_,icono_-32(46).png,[]
2025-08-08 07:24:38.629062,08/08/2025,09:00,3,Platja de Grifeu,42.381122572465,3.155852154311,Sense informació,_SENSE_INFORMACI_,icono_-32(46).png,[]
2025-08-08 07:24:40.630813,08/08/2025,09:00,4,Platja del Port,42.371389834866,3.1603341080741,Sense informació,_SENSE_INFORMACI_,icono_-32(46).png,[]
2025-08-08 07:24:46.075218,08/08/2025,09:00,7,Platja del Port de la Vall,42.343017800844,3.1860476518737,Sense informació,_SENSE_INFORMACI_,icono_-32(46).png,[]
2025-08-08 07:24:47.934093,08/08/2025,09:00,8,Platja del Port de la Selva,42.336064685865,3.2022324515734,Sense informació,_SENSE_INFORMACI_,icono_-32(46).png,[]
2025-08-08 07:24:53.435205,08/08/2025,09:00,11,Platja d'en Ros,42.284555920494,3.2877098066108,Sense informació,_SENSE_INFORMACI_,icono_-32(46).png,[]
2025-08-08 07:24:55.326975,08/08/2025,09:00,12,Platja Gran,42.288577711645,3.2783761325292,Sense informació,_SENSE_INFORMACI_,icono_-32(46).png,[]
2025-08-08 07:24:57.127272,08/08/2025,09:00,13,Platja es Llané Gran,42.284387572183,3.2755801750091,Sense informació,_SENSE_INFORMACI_,icono_-32(46).png,[]
2025-08-08 07:25:01.178608,08/08/2025,09:00,15,Platja de l'Almadrava,42.240751820077,3.2073699212645,Sense informació,_SENSE_INFORMACI_,icono_-32(46).png,[]
2025-08-08 07:25:03.177966,08/08/2025,09:00,16,Platja de Canyelles Petites,42.247093292781,3.1965417444188,Sense informació,_SENSE_INFORMACI_,icono_-32(46).png,[]
2025-08-08 07:25:05.013007,08/08/2025,09:00,17,Platja dels Palangrers,42.250548996256,3.1817995255545,Sense informació,_SENSE_INFORMACI_,icono_-32(46).png,[]
2025-08-08 07:25:06.961817,08/08/2025,09:00,18,Platja de la Punta,42.259434612085,3.1783333092279,Sense informació,_SENSE_INFORMACI_,icono_-32(46).png,[]
2025-08-08 07:25:09.527368,08/08/2025,09:00,20,Platja del Rastrell - Nova,42.264444593098,3.1707692709824,Sense informació,_SENSE_INFORMACI_,icono_-32(46).png,[]
2025-08-08 07:25:12.315231,08/08/2025,09:00,22,Platja de Santa Margarida  - Salatar,42.261253114072,3.1539925579586,Sense informació,_SENSE_INFORMACI_,icono_-32(46).png,[]
2025-08-08 07:25:14.175876,08/08/2025,09:00,23,Platja de la Rubina,42.251760933133,3.1395920353183,Sense informació,_SENSE_INFORMACI_,icono_-32(46).png,[]
2025-08-08 07:25:16.174484,08/08/2025,09:00,24,Platja d'Empuriabrava,42.237464998368,3.1266286044584,Sense informació,_SENSE_INFORMACI_,icono_-32(46).png,[]
2025-08-08 07:25:20.477815,08/08/2025,09:00,27,Platja  Can Sopa- la Gola,42.188837944827,3.1110541681406,Sense informació,_SENSE_INFORMACI_,icono_-32(46).png,[]
2025-08-08 07:25:26.750811,08/08/2025,09:00,32,Platja cal Cristià - Cortal de la Vila,42.162258112747,3.11307772045,Sense informació,_SENSE_INFORMACI_,icono_-32(46).png,[]
2025-08-08 07:25:28.325888,08/08/2025,09:00,33,Platja del Cortal de la Devesa,42.155599630417,3.1158256368126,Sense informació,_SENSE_INFORMACI_,icono_-32(46).png,[]
2025-08-08 07:25:31.009469,08/08/2025,09:00,35,Platja del Moll Grec,42.137970096999,3.1196657924795,Sense informació,_SENSE_INFORMACI_,icono_-32(46).png,[]
2025-08-08 07:25:32.683238,08/08/2025,09:00,36,Platja de les Muscleres,42.133824742521,3.121932809189,Sense informació,_SENSE_INFORMACI_,icono_-32(46).png,[]
2025-08-08 07:25:37.252577,08/08/2025,09:00,39,La Platja,42.12662468693,3.1335216908257,Sense informació,_SENSE_INFORMACI_,icono_-32(46).png,[]
2025-08-08 07:25:39.107689,08/08/2025,09:00,40,Platja de Riells,42.115414022008,3.1390867881384,Sense informació,_SENSE_INFORMACI_,icono_-32(46).png,[]
2025-08-08 07:25:40.842310,08/08/2025,09:00,41,Cala Montgó,42.107537981712,3.1691621950559,Sense informació,_SENSE_INFORMACI_,icono_-32(46).png,[]
2025-08-08 07:25:43.058784,08/08/2025,09:00,42,Platja de l'Estartit,42.040530061014,3.1969067525409,Sense informació,_SENSE_INFORMACI_,icono_-32(46).png,[]
2025-08-08 07:25:44.834894,08/08/2025,09:00,43,Platja de la Fonollera i Mas Pinell,42.012971643403,3.1958314021638,Sense informació,_SENSE_INFORMACI_,icono_-32(46).png,[]
2025-08-08 07:25:46.813289,08/08/2025,09:00,44,Platja del Grau,41.998447010977,3.1992642984294,Sense informació,_SENSE_INFORMACI_,icono_-32(46).png,[]
2025-08-08 07:25:48.555504,08/08/2025,09:00,45,Platja Gran,41.983150313938,3.2062663714709,Sense informació,_SENSE_INFORMACI_,icono_-32(46).png,[]
2025-08-08 07:25:50.283835,08/08/2025,09:00,46,Platja del Racó,41.980598649101,3.2078032308232,Sense informació,_SENSE_INFORMACI_,icono_-32(46).png,[]
2025-08-08 07:25:53.842887,08/08/2025,09:00,48,Platja de sa Riera,41.973054276372,3.2109650875895,Sense informació,_SENSE_INFORMACI_,icono_-32(46).png,[]
2025-08-08 07:25:55.481865,08/08/2025,09:00,49,Platja de sa Tuna,41.960300674631,3.2297840768147,Sense informació,_SENSE_INFORMACI_,icono_-32(46).png,[]
2025-08-08 07:25:58.837677,08/08/2025,09:00,51,Platja d'Aiguablava,41.933982188334,3.2162763587963,Sense informació,_SENSE_INFORMACI_,icono_-32(46).png,[]
2025-08-08 07:26:00.602374,08/08/2025,09:00,52,Platja de Tamariu,41.917695609444,3.2077799279301,Sense informació,_SENSE_INFORMACI_,icono_-32(46).png,[]
2025-08-08 07:26:02.490098,08/08/2025,09:00,53,Platja de Llafranc,41.893517976218,3.1942606254437,Sense informació,_SENSE_INFORMACI_,icono_-32(46).png,[]
2025-08-08 07:26:04.270286,08/08/2025,09:00,54,Platja del Canadell,41.888494636878,3.1873506913736,Sense informació,_SENSE_INFORMACI_,icono_-32(46).png,[]
2025-08-08 07:26:05.968650,08/08/2025,09:00,55,Platja de Port Bo,41.888273122042,3.1850960105222,Sense informació,_SENSE_INFORMACI_,icono_-32(46).png,[]
2025-08-08 07:26:12.298437,08/08/2025,09:00,59,Cala Estreta,41.865891137418,3.1735242128186,Sense informació,_SENSE_INFORMACI_,icono_-32(46).png,[]
2025-08-08 07:26:13.943536,08/08/2025,09:00,60,Platja de Castell,41.862484186982,3.1563454431433,Sense informació,_SENSE_INFORMACI_,icono_-32(46).png,[]
2025-08-08 07:26:15.571441,08/08/2025,09:00,61,Platja de la Fosca,41.856395441636,3.1425721730605,Sense informació,_SENSE_INFORMACI_,icono_-32(46).png,[]
2025-08-08 07:26:18.875955,08/08/2025,09:00,63,Platja del Morro del Vedell,41.848772644892,3.1376162876503,Sense informació,_SENSE_INFORMACI_,icono_-32(46).png,[]
2025-08-08 07:26:20.440870,08/08/2025,09:00,64,Platja Gran,41.848044307087,3.1204972116535,Sense informació,_SENSE_INFORMACI_,icono_-32(46).png,[]
2025-08-08 07:26:22.121654,08/08/2025,09:00,65,Platja d'es Monestrí,41.848634477964,3.1159087107782,Sense informació,_SENSE_INFORMACI_,icono_-32(46).png,[]
2025-08-08 07:26:23.685907,08/08/2025,09:00,66,Platja de Sant Antoni,41.846464863631,3.1054731235656,Sense informació,_SENSE_INFORMACI_,icono_-32(46).png,[]
2025-08-08 07:26:25.399890,08/08/2025,09:00,67,Platja de Torre Valentina,41.83955630846,3.0954648316799,Sense informació,_SENSE_INFORMACI_,icono_-32(46).png,[]
2025-08-08 07:26:27.048243,08/08/2025,09:00,68,Cala Cristus- Ses Torretes,41.831303444695,3.0873115224906,Sense informació,_SENSE_INFORMACI_,icono_-32(46).png,[]
2025-08-08 07:26:30.317064,11/04/2025,09:00,70,Cala Rovira,41.822017377494,3.0743907104439,Sense informació,_SENSE_INFORMACI_,icono_-32(46).png,[]
2025-08-08 07:26:32.344392,11/04/2025,09:00,71,Platja Gran,41.808475716066,3.0665619312071,Sense informació,_SENSE_INFORMACI_,icono_-32(46).png,[]
2025-08-08 07:26:34.087656,11/04/2025,09:00,72,Platja de sa Conca,41.798039659247,3.0611105254367,Sense informació,_SENSE_INFORMACI_,icono_-32(46).png,[]
2025-08-08 07:26:36.133651,08/08/2025,09:00,73,Platja de Sant Pol,41.790765992455,3.0531000902406,Sense informació,_SENSE_INFORMACI_,icono_-32(46).png,[]
2025-08-08 07:26:37.976747,08/08/2025,09:00,74,Platja de Sant Feliu,41.780073704422,3.0312025523598,Sense informació,_SENSE_INFORMACI_,icono_-32(46).png,[]
2025-08-08 07:26:45.627003,08/08/2025,09:00,79,Platja de la Mar Menuda,41.721974701761,2.9380238400018,Sense informació,_SENSE_INFORMACI_,icono_-32(46).png,[]
2025-08-08 07:26:47.328722,08/08/2025,09:00,80,Platja Gran,41.719540686424,2.9342512458012,Sense informació,_SENSE_INFORMACI_,icono_-32(46).png,[]
2025-08-08 07:26:48.965951,08/08/2025,09:00,81,Platja d'es Codolar,41.715756719614,2.9325600886616,Sense informació,_SENSE_INFORMACI_,icono_-32(46).png,[]
2025-08-08 07:26:52.251004,08/08/2025,09:00,83,Cala Canyelles,41.70415160028,2.8828006632717,Sense informació,_SENSE_INFORMACI_,icono_-32(46).png,[]
2025-08-08 07:26:54.242066,08/08/2025,09:00,84,Platja de Lloret,41.697245339442,2.8464469669299,Sense informació,_SENSE_INFORMACI_,icono_-32(46).png,[]
2025-08-08 07:26:55.962687,08/08/2025,09:00,85,Platja de Fenals,41.69446371372,2.8346044227506,Sense informació,_SENSE_INFORMACI_,icono_-32(46).png,[]
2025-08-08 07:26:57.623676,08/08/2025,09:00,86,Platja de sa Boadella,41.69058425226,2.8242319479239,Sense informació,_SENSE_INFORMACI_,icono_-32(46).png,[]
2025-08-08 07:26:59.286202,08/08/2025,09:00,87,Platja de Santa Cristina,41.687872392502,2.8179909180553,Sense informació,_SENSE_INFORMACI_,icono_-32(46).png,[]
2025-08-08 07:27:00.970372,08/08/2025,09:00,88,Cala de Sant Francesc,41.678793861428,2.8073596508894,Sense informació,_SENSE_INFORMACI_,icono_-32(46).png,[]
2025-08-08 07:27:02.804170,08/08/2025,09:00,89,Platja de Blanes,41.673644217732,2.7932230707804,Sense informació,_SENSE_INFORMACI_,icono_-32(46).png,[]
2025-08-08 07:27:04.767153,08/08/2025,09:00,90,Platja de s'Abanell,41.661376426198,2.7834371218386,Sense informació,_SENSE_INFORMACI_,icono_-32(46).png,[]
2025-08-08 07:27:06.365643,08/08/2025,09:00,91,Platja de la Punta de la Tordera- de la Conca,41.649147111322,2.7753359991846,Sense informació,_SENSE_INFORMACI_,icono_-32(46).png,[]
2025-08-08 07:27:08.990471,08/08/2025,09:00,93,Platja de Malgrat Centre,41.636775719344,2.7312784550594,Sense informació,_SENSE_INFORMACI_,icono_-32(46).png,[]
2025-08-08 07:27:10.893271,08/08/2025,09:00,94,Platja de l'Astillero,41.636775719344,2.7312784550594,Sense informació,_SENSE_INFORMACI_,icono_-32(46).png,[]
2025-08-08 07:27:12.680186,08/08/2025,09:00,95,Platja de Llevant - les Caletes,41.629016946748,2.714851506193,Sense informació,_SENSE_INFORMACI_,icono_-32(46).png,[]
2025-08-08 07:27:14.272630,08/08/2025,09:00,96,Platja de les Dunes,41.629016738266,2.7147674705051,Sense informació,_SENSE_INFORMACI_,icono_-32(46).png,[]
2025-08-08 07:27:15.943795,08/08/2025,09:00,97,Platja dels Pins,41.623467631667,2.7003508749835,Sense informació,_SENSE_INFORMACI_,icono_-32(46).png,[]
2025-08-08 07:27:17.654445,08/08/2025,09:00,98,Platja dels Pescadors,41.616694804155,2.6772885679023,Sense informació,_SENSE_INFORMACI_,icono_-32(46).png,[]
2025-08-08 07:27:20.279627,08/08/2025,09:00,100,Platja del Poblenou- la Riera,41.616694804155,2.6772885679023,Sense informació,_SENSE_INFORMACI_,icono_-32(46).png,[]
2025-08-08 07:27:21.977148,08/08/2025,09:00,101,Platja Gran,0.0,-1.4887438971664,Sense informació,_SENSE_INFORMACI_,icono_-32(46).png,[]
2025-08-08 07:27:23.685836,08/08/2025,09:00,102,Platja de Garbí,41.610197915626,2.6546736782755,Sense informació,_SENSE_INFORMACI_,icono_-32(46).png,[]
2025-08-08 07:27:26.976089,08/08/2025,09:00,104,Platja de la Platjola i el Morer,41.6029153155,2.6299917264038,Sense informació,_SENSE_INFORMACI_,icono_-32(46).png,[]
2025-08-08 07:27:29.678100,08/08/2025,09:00,106,Platja de les Barques,41.600942954914,2.6245069877988,Sense informació,_SENSE_INFORMACI_,icono_-32(46).png,[]
2025-08-08 07:27:31.422002,08/08/2025,09:00,107,Platja de Can Villar,41.597751116242,2.6153459333312,Sense informació,_SENSE_INFORMACI_,icono_-32(46).png,[]
2025-08-08 07:27:36.560309,08/08/2025,09:00,110,Platja de Canet,41.588061686279,2.5874609909206,Sense informació,_SENSE_INFORMACI_,icono_-32(46).png,[]
2025-08-08 07:27:38.258227,08/08/2025,09:00,111,Platja de Cavaió,41.583795643622,2.5760191775077,Sense informació,_SENSE_INFORMACI_,icono_-32(46).png,[]
2025-08-08 07:27:39.864396,08/08/2025,09:00,112,Platja de Cavaió,41.580455660735,2.5668159401585,Sense informació,_SENSE_INFORMACI_,icono_-32(46).png,[]
2025-08-08 07:27:41.632648,08/08/2025,09:00,113,Platja de la Picòrdia,41.577971699465,2.5532293622753,Sense informació,_SENSE_INFORMACI_,icono_-32(46).png,[]
2025-08-08 07:27:44.286703,08/08/2025,09:00,115,Platja de la Musclera,41.570409747343,2.5338626246285,Sense informació,_SENSE_INFORMACI_,icono_-32(46).png,[]
2025-08-08 07:27:45.955581,08/08/2025,09:00,116,Platja del Kalima,41.568987063337,2.5295549831514,Sense informació,_SENSE_INFORMACI_,icono_-32(46).png,[]
2025-08-08 07:27:47.605462,08/08/2025,09:00,117,Platja dels Tres Micos,41.567275547635,2.5251417013465,Sense informació,_SENSE_INFORMACI_,icono_-32(46).png,[]
2025-08-08 07:27:49.231429,08/08/2025,09:00,118,Platja de Sant Vicenç,41.564019930101,2.5176938008672,Sense informació,_SENSE_INFORMACI_,icono_-32(46).png,[]
2025-08-08 07:27:50.995519,08/08/2025,09:00,119,Platja de les Barques - l'Estació,41.556410809602,2.5012857035747,Sense informació,_SENSE_INFORMACI_,icono_-32(46).png,[]
2025-08-08 07:27:53.881114,08/08/2025,09:00,121,Platja de Sant Simó,41.542009693885,2.4597702805891,Sense informació,_SENSE_INFORMACI_,icono_-32(46).png,[]
2025-08-08 07:27:55.634091,08/08/2025,09:00,122,Platja del Callao,41.539106875639,2.4554306108427,Sense informació,_SENSE_INFORMACI_,icono_-32(46).png,[]
2025-08-08 07:27:57.379502,08/08/2025,09:00,123,Platja del Varador,41.535309226105,2.4504755263813,Sense informació,_SENSE_INFORMACI_,icono_-32(46).png,[]
2025-08-08 07:27:59.045562,08/08/2025,09:00,124,Platja de Ponent,41.52876774771,2.4406898650633,Sense informació,_SENSE_INFORMACI_,icono_-32(46).png,[]
2025-08-08 07:28:01.678896,08/08/2025,09:00,126,Platja de Cabrera (Vinyals),41.507465534542,2.4048412901368,Sense informació,_SENSE_INFORMACI_,icono_-32(46).png,[]
2025-08-08 07:28:04.223512,08/08/2025,09:00,128,Platja de l'Astillero - l'Almadrava,41.504417987185,2.3990578680924,Sense informació,_SENSE_INFORMACI_,icono_-32(46).png,[]
2025-08-08 07:28:06.038774,08/08/2025,09:00,129,Platja de Ponent,41.498057623062,2.3852067867651,Sense informació,_SENSE_INFORMACI_,icono_-32(46).png,[]
2025-08-08 07:28:07.717687,08/08/2025,09:00,130,Platja de Llevant,0.0,-1.4887438971664,Sense informació,_SENSE_INFORMACI_,icono_-32(46).png,[]
2025-08-08 07:28:11.203836,08/08/2025,09:00,133,Platja del Pla de l'Ós- Descàrrega,41.487626235325,2.3554417154751,Sense informació,_SENSE_INFORMACI_,icono_-32(46).png,[]
2025-08-08 07:28:14.242400,08/08/2025,09:00,135,Platja d'Ocata,41.477684685782,2.3199200941791,Sense informació,_SENSE_INFORMACI_,icono_-32(46).png,[]
2025-08-08 07:28:16.097754,08/08/2025,09:00,136,Platja del Masnou,41.475108951044,2.3049162639625,Sense informació,_SENSE_INFORMACI_,icono_-32(46).png,[]
2025-08-08 07:28:17.878253,08/08/2025,09:00,137,Platja de Monsolís -les Barques,41.468406238555,2.287060600628,Sense informació,_SENSE_INFORMACI_,icono_-32(46).png,[]
2025-08-08 07:28:20.453359,08/08/2025,09:00,139,Platja de les Roques,41.464399760381,2.2772492978992,Sense informació,_SENSE_INFORMACI_,icono_-32(46).png,[]
2025-08-08 07:28:23.126834,08/08/2025,09:00,141,Platja de Cristall,41.454099780717,2.2595480957504,Sense informació,_SENSE_INFORMACI_,icono_-32(46).png,[]
2025-08-08 07:28:25.870623,08/08/2025,09:00,143,Platja dels Pescadors,41.446569998148,2.2512656852142,Sense informació,_SENSE_INFORMACI_,icono_-32(46).png,[]
2025-08-08 07:28:30.442727,08/08/2025,09:00,147,Platja de Coco,41.438701968931,2.2450599158731,Sense informació,_SENSE_INFORMACI_,icono_-32(46).png,[]
2025-08-08 07:28:32.791705,08/08/2025,09:00,149,Platja del Litoral,41.421982291685,2.2352372980518,Sense informació,_SENSE_INFORMACI_,icono_-32(46).png,[]
2025-08-08 07:28:34.662347,08/08/2025,09:00,150,Platja del Fòrum,41.416807060406,2.2317919861506,Sense informació,_SENSE_INFORMACI_,icono_-32(46).png,[]
2025-08-08 07:28:36.283152,08/08/2025,09:00,151,Zona de Banys Fòrum,41.409775136883,2.2268496750303,Sense informació,_SENSE_INFORMACI_,icono_-32(46).png,[]
2025-08-08 07:28:38.030538,08/08/2025,09:00,152,Platja de Llevant,41.404818309454,2.2184500675217,Sense informació,_SENSE_INFORMACI_,icono_-32(46).png,[]
2025-08-08 07:28:39.783011,08/08/2025,09:00,153,Platja de la Nova Mar Bella,41.401868963879,2.2152314154427,Sense informació,_SENSE_INFORMACI_,icono_-32(46).png,[]
2025-08-08 07:28:41.325476,08/08/2025,09:00,154,Platja de la Mar Bella,41.39828815496,2.211889092231,Sense informació,_SENSE_INFORMACI_,icono_-32(46).png,[]
2025-08-08 07:28:42.879262,08/08/2025,09:00,155,Platja del Bogatell,41.394117638021,2.2066404017632,Sense informació,_SENSE_INFORMACI_,icono_-32(46).png,[]
2025-08-08 07:28:44.557993,08/08/2025,09:00,156,Platja de la Nova Icària,41.390467569537,2.2024385871148,Sense informació,_SENSE_INFORMACI_,icono_-32(46).png,[]
2025-08-08 07:28:46.242602,08/08/2025,09:00,157,Platja del Somorrostro,41.383069775747,2.1955923334171,Sense informació,_SENSE_INFORMACI_,icono_-32(46).png,[]
2025-08-08 07:28:48.081588,08/08/2025,09:00,158,Platja de la Barceloneta,41.380574709835,2.1943075589302,Sense informació,_SENSE_INFORMACI_,icono_-32(46).png,[]
2025-08-08 07:28:49.681147,08/08/2025,09:00,159,Platja de Sant Miquel,41.376248597736,2.1913832829702,Sense informació,_SENSE_INFORMACI_,icono_-32(46).png,[]
2025-08-08 07:28:51.330902,08/08/2025,09:00,160,Platja de Sant Sebastià,41.372327471678,2.1896979659343,Sense informació,_SENSE_INFORMACI_,icono_-32(46).png,[]
2025-08-08 07:28:54.060441,08/08/2025,09:00,162,Platja del Remolar- Pineda de Cal Francès,41.275028516373,2.0662013319061,Sense informació,_SENSE_INFORMACI_,icono_-32(46).png,[]
2025-08-08 07:28:56.064817,08/08/2025,09:00,163,Platja de Gavà,41.26581617619,2.0199046987666,Sense informació,_SENSE_INFORMACI_,icono_-32(46).png,[]
2025-08-08 07:28:57.691283,08/08/2025,09:00,164,Platja de la Pineda,41.263958952309,1.9925827273801,Sense informació,_SENSE_INFORMACI_,icono_-32(46).png,[]
2025-08-08 07:28:59.399911,08/08/2025,09:00,165,Platja de les Lluminetes,41.264006354566,1.9754988576444,Sense informació,_SENSE_INFORMACI_,icono_-32(46).png,[]
2025-08-08 07:29:01.310664,08/08/2025,09:00,166,Platja del Baixador,41.263775689677,1.9479260266039,Sense informació,_SENSE_INFORMACI_,icono_-32(46).png,[]
2025-08-08 07:29:03.052741,08/08/2025,09:00,167,Platja de les Botigues,41.261775734073,1.9332153443612,Sense informació,_SENSE_INFORMACI_,icono_-32(46).png,[]
2025-08-08 07:29:04.682218,08/08/2025,09:00,168,Platja del Garraf,41.252746506686,1.8079767382934,Sense informació,_SENSE_INFORMACI_,icono_-32(46).png,[]
2025-08-08 07:29:06.447637,08/08/2025,09:00,169,Platja d'Aiguadolç,41.236223044103,1.827810941185,Sense informació,_SENSE_INFORMACI_,icono_-32(46).png,[]
2025-08-08 07:29:08.220042,08/08/2025,09:00,170,Platja dels Balmins,41.23580612582,1.8205036540361,Sense informació,_SENSE_INFORMACI_,icono_-32(46).png,[]
2025-08-08 07:29:10.023147,08/08/2025,09:00,171,Platja de Sant Sebastià,41.236205881866,1.8146971481653,Sense informació,_SENSE_INFORMACI_,icono_-32(46).png,[]
2025-08-08 07:29:12.557679,08/08/2025,09:00,173,Platja de la Ribera,41.234365209654,1.8082868978651,Sense informació,_SENSE_INFORMACI_,icono_-32(46).png,[]
2025-08-08 07:29:15.142293,08/08/2025,09:00,175,Platja de l'Estanyol,41.231825008401,1.7996107795283,Sense informació,_SENSE_INFORMACI_,icono_-32(46).png,[]
2025-08-08 07:29:17.852743,08/08/2025,09:00,177,Platja de la Barra,41.228099902123,1.7922457424675,Sense informació,_SENSE_INFORMACI_,icono_-32(46).png,[]
2025-08-08 07:29:19.528263,08/08/2025,09:00,178,Platja de Terramar,41.226462424175,1.789853891713,Sense informació,_SENSE_INFORMACI_,icono_-32(46).png,[]
2025-08-08 07:29:22.078345,08/08/2025,09:00,180,Platja del Far de S. Cristòfol,41.215502334745,1.7388568480942,Sense informació,_SENSE_INFORMACI_,icono_-32(46).png,[]
2025-08-08 07:29:23.783835,08/08/2025,09:00,181,Platja de Ribes-roges,41.211943848511,1.724909456349,Sense informació,_SENSE_INFORMACI_,icono_-32(46).png,[]
2025-08-08 07:29:25.412713,08/08/2025,09:00,182,Platja d'Adarró,41.21134545456,1.7164520717704,Sense informació,_SENSE_INFORMACI_,icono_-32(46).png,[]
2025-08-08 07:29:27.017042,08/08/2025,09:00,183,Platja de Sant Gervasi,41.210005976146,1.7118502189238,Sense informació,_SENSE_INFORMACI_,icono_-32(46).png,[]
2025-08-08 07:29:29.601334,08/08/2025,09:00,185,Platja d'Ibersol,41.203626928879,1.6854025178517,Sense informació,_SENSE_INFORMACI_,icono_-32(46).png,[]
2025-08-08 07:29:31.234148,08/08/2025,09:00,186,Platja Llarga,41.201178681595,1.6808360382307,Sense informació,_SENSE_INFORMACI_,icono_-32(46).png,[]
2025-08-08 07:29:32.978215,08/08/2025,09:00,187,Platja de la Mota de Sant Pere,41.197974673287,1.6701076058795,Sense informació,_SENSE_INFORMACI_,icono_-32(46).png,[]
2025-08-08 07:29:34.650294,08/08/2025,09:00,188,Platja de les Salines,41.195944207291,1.6573647433448,Sense informació,_SENSE_INFORMACI_,icono_-32(46).png,[]
2025-08-08 07:29:36.341271,08/08/2025,09:00,189,Platja de les Gavines,41.19499223244,1.6460672206857,Sense informació,_SENSE_INFORMACI_,icono_-32(46).png,[]
2025-08-08 07:29:37.955644,08/08/2025,09:00,190,Platja de Cunit Llevant,41.192959639893,1.6348878850593,Sense informació,_SENSE_INFORMACI_,icono_-32(46).png,[]
2025-08-08 07:29:40.685853,08/08/2025,09:00,192,Platja de l'Estany-Mas Mel,41.188150495747,1.5886396250873,Sense informació,_SENSE_INFORMACI_,icono_-32(46).png,[]
2025-08-08 07:29:42.726409,08/08/2025,09:00,193,Platja de Calafell,41.18625839246,1.5710692123581,Sense informació,_SENSE_INFORMACI_,icono_-32(46).png,[]
2025-08-08 07:29:44.795847,08/08/2025,09:00,194,Platja de Sant Salvador,41.182994372502,1.5427755564115,Sense informació,_SENSE_INFORMACI_,icono_-32(46).png,[]
2025-08-08 07:29:47.417212,08/08/2025,09:00,196,Platja del Francàs,41.17535494276,1.5026740533088,Sense informació,_SENSE_INFORMACI_,icono_-32(46).png,[]
2025-08-08 07:29:49.147836,08/08/2025,09:00,197,Platja de la Costa Daurada,41.170338915321,1.4889723359421,Sense informació,_SENSE_INFORMACI_,icono_-32(46).png,[]
2025-08-08 07:29:54.201161,08/08/2025,09:00,200,Platja Llarga,41.165614769917,1.4661712099269,Sense informació,_SENSE_INFORMACI_,icono_-32(46).png,[]
2025-08-08 07:29:56.145913,08/08/2025,09:00,201,Platja de Creixell,41.156025386379,1.4422848019115,Sense informació,_SENSE_INFORMACI_,icono_-32(46).png,[]
2025-08-08 07:29:57.776247,08/08/2025,09:00,202,Platja dels Muntanyans,41.146268399657,1.4196724944992,Sense informació,_SENSE_INFORMACI_,icono_-32(46).png,[]
2025-08-08 07:29:59.545735,08/08/2025,09:00,203,Platja del Barri Marítim,41.143486934269,1.4132571728329,Sense informació,_SENSE_INFORMACI_,icono_-32(46).png,[]
2025-08-08 07:30:01.181349,08/08/2025,09:00,204,Platja de la Paella,41.139913156509,1.4062419906541,Sense informació,_SENSE_INFORMACI_,icono_-32(46).png,[]
2025-08-08 07:30:02.953568,08/08/2025,09:00,205,Platja del Canyadell,41.132349213814,1.3902225852882,Sense informació,_SENSE_INFORMACI_,icono_-32(46).png,[]
2025-08-08 07:30:04.668628,08/08/2025,09:00,206,Platja d'Altafulla,41.134370623023,1.3821312252341,Sense informació,_SENSE_INFORMACI_,icono_-32(46).png,[]
2025-08-08 07:30:07.242970,08/08/2025,09:00,208,Platja de Tamarit,41.130248549515,1.3626114471976,Sense informació,_SENSE_INFORMACI_,icono_-32(46).png,[]
2025-08-08 07:30:09.947036,08/08/2025,09:00,210,Platja de la Móra,41.127944515602,1.3469796024841,Sense informació,_SENSE_INFORMACI_,icono_-32(46).png,[]
2025-08-08 07:30:13.988054,08/08/2025,09:00,213,Platja Llarga,41.128624032857,1.3038855528765,Sense informació,_SENSE_INFORMACI_,icono_-32(46).png,[]
2025-08-08 07:30:18.430935,08/08/2025,09:00,217,Platja de la Savinosa,41.12271312207,1.2848955466845,Sense informació,_SENSE_INFORMACI_,icono_-32(46).png,[]
2025-08-08 07:30:20.242204,08/08/2025,09:00,218,Platja de l'Arrabassada,41.118954578696,1.2762864073596,Sense informació,_SENSE_INFORMACI_,icono_-32(46).png,[]
2025-08-08 07:30:21.978072,08/08/2025,09:00,219,Platja del Miracle,41.114194509063,1.2622258835189,Sense informació,_SENSE_INFORMACI_,icono_-32(46).png,[]
2025-08-08 07:30:24.677447,08/08/2025,09:00,221,Platja de la Pineda,41.079563052673,1.1852750478943,Sense informació,_SENSE_INFORMACI_,icono_-32(46).png,[]
2025-08-08 07:30:26.398376,08/08/2025,09:00,222,Platja del Racó,41.067382250887,1.1793974070461,Sense informació,_SENSE_INFORMACI_,icono_-32(46).png,[]
2025-08-08 07:30:28.138801,08/08/2025,09:00,223,Cala Crancs,41.056423516786,1.1676809900815,Sense informació,_SENSE_INFORMACI_,icono_-32(46).png,[]
2025-08-08 07:30:29.961259,08/08/2025,09:00,224,Cala Font,41.059238612971,1.1617598427288,Sense informació,_SENSE_INFORMACI_,icono_-32(46).png,[]
2025-08-08 07:30:31.655811,08/08/2025,09:00,225,Platja Llarga,41.065320748526,1.1551280211854,Sense informació,_SENSE_INFORMACI_,icono_-32(46).png,[]
2025-08-08 07:30:33.649473,08/08/2025,09:00,226,Platja Capellans,41.068271974443,1.1481900575559,Sense informació,_SENSE_INFORMACI_,icono_-32(46).png,[]
2025-08-08 07:30:35.733104,08/08/2025,09:00,227,Platja de Llevant,41.073477083085,1.1352723017828,Sense informació,_SENSE_INFORMACI_,icono_-32(46).png,[]
2025-08-08 07:30:37.542785,08/08/2025,09:00,228,Platja de Ponent,41.074876509675,1.1254841914737,Sense informació,_SENSE_INFORMACI_,icono_-32(46).png,[]
2025-08-08 07:30:39.300700,08/08/2025,09:00,229,Platja del Cap de Sant Pere,41.072324958385,1.1142969062962,Sense informació,_SENSE_INFORMACI_,icono_-32(46).png,[]
2025-08-08 07:30:41.071749,08/08/2025,09:00,230,Platja de Vilafortuny,41.069865092566,1.1021794964984,Sense informació,_SENSE_INFORMACI_,icono_-32(46).png,[]
2025-08-08 07:30:42.651154,08/08/2025,09:00,231,Platja de l'Esquirol,41.066622925891,1.0923945279686,Sense informació,_SENSE_INFORMACI_,icono_-32(46).png,[]
2025-08-08 07:30:44.371584,08/08/2025,09:00,232,Platja de Cavet,41.064245472214,1.0799552714078,Sense informació,_SENSE_INFORMACI_,icono_-32(46).png,[]
2025-08-08 07:30:46.009900,08/08/2025,09:00,233,Platja del Prat d'en Forés-Regueral,41.065828136459,1.0690195243151,Sense informació,_SENSE_INFORMACI_,icono_-32(46).png,[]
2025-08-08 07:30:47.806310,08/08/2025,09:00,234,Platja de la Riera,41.063580585685,1.0558872062892,Sense informació,_SENSE_INFORMACI_,icono_-32(46).png,[]
2025-08-08 07:30:49.589495,08/08/2025,09:00,235,Platja de l'Horta de Santa Maria,41.064091512848,1.0525398813016,Sense informació,_SENSE_INFORMACI_,icono_-32(46).png,[]
2025-08-08 07:30:51.247899,08/08/2025,09:00,236,Platja de la Llosa,41.063205543692,1.0464966148408,Sense informació,_SENSE_INFORMACI_,icono_-32(46).png,[]
2025-08-08 07:30:52.966849,08/08/2025,09:00,237,Platja de l'Estany,41.269665774965,2.0427818633591,Sense informació,_SENSE_INFORMACI_,icono_-32(46).png,[]
2025-08-08 07:30:54.877525,08/08/2025,09:00,238,Platja de l'Ardiaca,41.055755147124,1.0294986163483,Sense informació,_SENSE_INFORMACI_,icono_-32(46).png,[]
2025-08-08 07:30:57.446654,08/08/2025,09:00,240,Platja de la Pixerota,41.044851709882,1.0056840642434,Sense informació,_SENSE_INFORMACI_,icono_-32(46).png,[]
2025-08-08 07:30:59.196421,08/08/2025,09:00,241,Platja de la Porquerola,41.034623237399,0.97697954842933,Sense informació,_SENSE_INFORMACI_,icono_-32(46).png,[]
2025-08-08 07:31:00.973903,08/08/2025,09:00,242,Platja de la Casa dels lladres,41.027906541309,0.96588557309922,Sense informació,_SENSE_INFORMACI_,icono_-32(46).png,[]
2025-08-08 07:31:02.619566,08/08/2025,09:00,243,Cala del Vienesos-platja dels Espenyals,41.01652868413,0.95207202879475,Sense informació,_SENSE_INFORMACI_,icono_-32(46).png,[]
2025-08-08 07:31:04.429827,08/08/2025,09:00,244,Platja Cristall,40.999130619831,0.93615625673566,Sense informació,_SENSE_INFORMACI_,icono_-32(46).png,[]
2025-08-08 07:31:06.100861,08/08/2025,09:00,245,Platja de la Punta del riu,40.990535680876,0.93052815890304,Sense informació,_SENSE_INFORMACI_,icono_-32(46).png,[]
2025-08-08 07:31:07.614089,08/08/2025,09:00,246,Platja de l'Arenal,40.987613406623,0.91582017449322,Sense informació,_SENSE_INFORMACI_,icono_-32(46).png,[]
2025-08-08 07:31:09.391841,08/08/2025,09:00,247,Platja del Torn,40.97002027231,0.89343823361539,Sense informació,_SENSE_INFORMACI_,icono_-32(46).png,[]
2025-08-08 07:31:11.105181,08/08/2025,09:00,248,Platja de l'Almadrava,40.939182506783,0.85796416867759,Sense informació,_SENSE_INFORMACI_,icono_-32(46).png,[]
2025-08-08 07:31:12.911547,08/08/2025,09:00,249,Cala Calafató,40.9221357093,0.84129581336596,Sense informació,_SENSE_INFORMACI_,icono_-32(46).png,[]
2025-08-08 07:31:14.628508,08/08/2025,09:00,250,Platja Sant Jordi d'Alfama,40.912094315636,0.83227822778743,Sense informació,_SENSE_INFORMACI_,icono_-32(46).png,[]
2025-08-08 07:31:16.319206,08/08/2025,09:00,251,Cala Forn,40.908272916148,0.8264192381245,Sense informació,_SENSE_INFORMACI_,icono_-32(46).png,[]
2025-08-08 07:31:18.153255,08/08/2025,09:00,252,Platja de Pixavaques,40.886862404168,0.80693133925294,Sense informació,_SENSE_INFORMACI_,icono_-32(46).png,[]
2025-08-08 07:31:19.840231,08/08/2025,09:00,253,Platja de l'Alguer,40.88446739366,0.80556249285564,Sense informació,_SENSE_INFORMACI_,icono_-32(46).png,[]
2025-08-08 07:31:24.860679,08/08/2025,09:00,256,Platja de Santa Llúcia,40.827900375872,0.74165134235169,Sense informació,_SENSE_INFORMACI_,icono_-32(46).png,[]
2025-08-08 07:31:28.260570,08/08/2025,09:00,258,Platja del Cap Roig,40.821794398082,0.73252699060494,Sense informació,_SENSE_INFORMACI_,icono_-32(46).png,[]
2025-08-08 07:31:29.983920,08/08/2025,09:00,259,Platja de les Avellanes,40.812628169567,0.71490187254377,Sense informació,_SENSE_INFORMACI_,icono_-32(46).png,[]
2025-08-08 07:31:31.479820,08/08/2025,09:00,260,Platja de l'Arenal,40.793456626705,0.70428834230694,Sense informació,_SENSE_INFORMACI_,icono_-32(46).png,[]
2025-08-08 07:31:33.189033,08/08/2025,09:00,261,Platja de la Marquesa,40.760417999771,0.80049202793842,Sense informació,_SENSE_INFORMACI_,icono_-32(46).png,[]
2025-08-08 07:31:36.445815,08/08/2025,09:00,263,Platja de Riumar,40.730702029048,0.84200315331873,Sense informació,_SENSE_INFORMACI_,icono_-32(46).png,[]
2025-08-08 07:31:39.642576,08/08/2025,09:00,265,Platja del Serrallo,40.67042521796,0.8272794665772,Sense informació,_SENSE_INFORMACI_,icono_-32(46).png,[]
2025-08-08 07:31:43.099166,08/08/2025,09:00,267,Platja del Trabucador,40.627562143093,0.74257678337961,Sense informació,_SENSE_INFORMACI_,icono_-32(46).png,[]
2025-08-08 07:31:46.532299,08/08/2025,09:00,269,Platja del Parc de Garbí,40.613608094652,0.59273036197834,Sense informació,_SENSE_INFORMACI_,icono_-32(46).png,[]
2025-08-08 07:31:52.933809,08/08/2025,09:00,275,Platja de les Delícies,40.606291747384,0.58357352902512,Sense informació,_SENSE_INFORMACI_,icono_-32(46).png,[]
2025-08-08 07:31:55.448378,08/08/2025,09:00,277,Platja de la Martinenca,40.572927028126,0.54682037719963,Sense informació,_SENSE_INFORMACI_,icono_-32(46).png,[]
2025-08-08 07:31:57.053721,08/08/2025,09:00,278,Platja del Maricel,40.568761058929,0.53983812944421,Sense informació,_SENSE_INFORMACI_,icono_-32(46).png,[]
2025-08-08 07:31:58.850328,08/08/2025,09:00,279,Platja de les Cases d'Alcanar-Marjal,40.545226788511,0.5243696664454,Sense informació,_SENSE_INFORMACI_,icono_-32(46).png,[]
