scrape_time,page_date,page_hour,bay_id,bay_name,lat,lon,jellyfish_lab,jellyfish_lab2,jellyfish_icon,jellyfish_list
2023-06-16 20:49:06.975935,16/06/2023,20:00,0,Platja Gran,42.427199628058,3.1607680066534,Sense informació,_SENSE_INFORMACI_,icono_-32(46).png,[]
2023-06-16 20:49:11.348136,16/06/2023,20:00,3,Platja de Grifeu,42.381122572465,3.155852154311,Sense informació,_SENSE_INFORMACI_,icono_-32(46).png,[]
2023-06-16 20:49:12.796860,16/06/2023,20:00,4,Platja del Port,42.371389834866,3.1603341080741,Sense informació,_SENSE_INFORMACI_,icono_-32(46).png,[]
2023-06-16 20:49:17.984904,16/06/2023,20:00,7,Platja del Port de la Vall,42.343017800844,3.1860476518737,Sense informació,_SENSE_INFORMACI_,icono_-32(46).png,[]
2023-06-16 20:49:20.788909,16/06/2023,20:00,8,Platja del Port de la Selva,42.336064685865,3.2022324515734,Sense informació,_SENSE_INFORMACI_,icono_-32(46).png,[]
2023-06-16 20:49:25.230906,16/06/2023,20:00,11,Platja d'en Ros,42.284555920494,3.2877098066108,Sense informació,_SENSE_INFORMACI_,icono_-32(46).png,[]
2023-06-16 20:49:26.648903,16/06/2023,20:00,12,Platja Gran,42.288577711645,3.2783761325292,Sense informació,_SENSE_INFORMACI_,icono_-32(46).png,[]
2023-06-16 20:49:28.033059,16/06/2023,20:00,13,Platja es Llané Gran,42.284387572183,3.2755801750091,Sense informació,_SENSE_INFORMACI_,icono_-32(46).png,[]
2023-06-16 20:49:31.070076,16/06/2023,20:00,15,Platja de l'Almadrava,42.240751820077,3.2073699212645,Sense informació,_SENSE_INFORMACI_,icono_-32(46).png,[]
2023-06-16 20:49:32.492075,16/06/2023,20:00,16,Platja de Canyelles Petites,42.247093292781,3.1965417444188,Sense informació,_SENSE_INFORMACI_,icono_-32(46).png,[]
2023-06-16 20:49:33.793076,16/06/2023,20:00,17,Platja dels Palangrers,42.250548996256,3.1817995255545,Sense informació,_SENSE_INFORMACI_,icono_-32(46).png,[]
2023-06-16 20:49:35.141615,16/06/2023,20:00,18,Platja de la Punta,42.259434612085,3.1783333092279,Sense informació,_SENSE_INFORMACI_,icono_-32(46).png,[]
2023-06-16 20:49:37.197616,16/06/2023,20:00,20,Platja del Rastrell - Nova,42.264444593098,3.1707692709824,Sense informació,_SENSE_INFORMACI_,icono_-32(46).png,[]
2023-06-16 20:49:39.181611,16/06/2023,20:00,22,Platja de Santa Margarida  - Salatar,42.261253114072,3.1539925579586,Sense informació,_SENSE_INFORMACI_,icono_-32(46).png,[]
2023-06-16 20:49:40.519616,16/06/2023,20:00,23,Platja de la Rubina,42.251760933133,3.1395920353183,Sense informació,_SENSE_INFORMACI_,icono_-32(46).png,[]
2023-06-16 20:49:41.986612,16/06/2023,20:00,24,Platja d'Empuriabrava,42.237464998368,3.1266286044584,Sense informació,_SENSE_INFORMACI_,icono_-32(46).png,[]
2023-06-16 20:49:45.453637,16/06/2023,20:00,27,Platja  Can Sopa- la Gola,42.188837944827,3.1110541681406,Sense informació,_SENSE_INFORMACI_,icono_-32(46).png,[]
2023-06-16 20:49:49.859636,16/06/2023,20:00,32,Platja cal Cristià - Cortal de la Vila,42.162258112747,3.11307772045,Sense informació,_SENSE_INFORMACI_,icono_-32(46).png,[]
2023-06-16 20:49:51.099889,16/06/2023,20:00,33,Platja del Cortal de la Devesa,42.155599630417,3.1158256368126,Sense informació,_SENSE_INFORMACI_,icono_-32(46).png,[]
2023-06-16 20:49:53.074981,16/06/2023,20:00,35,Platja del Moll Grec,42.137970096999,3.1196657924795,Sense informació,_SENSE_INFORMACI_,icono_-32(46).png,[]
2023-06-16 20:49:54.467979,16/06/2023,20:00,36,Platja de les Muscleres,42.133824742521,3.121932809189,Sense informació,_SENSE_INFORMACI_,icono_-32(46).png,[]
2023-06-16 20:49:57.966856,16/06/2023,20:00,39,La Platja,42.12662468693,3.1335216908257,Sense informació,_SENSE_INFORMACI_,icono_-32(46).png,[]
2023-06-16 20:49:59.276989,16/06/2023,20:00,40,Platja de Riells,42.115414022008,3.1390867881384,Sense informació,_SENSE_INFORMACI_,icono_-32(46).png,[]
2023-06-16 20:50:00.661543,16/06/2023,20:00,41,Cala Montgó,42.107537981712,3.1691621950559,Sense informació,_SENSE_INFORMACI_,icono_-32(46).png,[]
2023-06-16 20:50:02.869831,16/06/2023,20:00,42,Platja de l'Estartit,42.040530061014,3.1969067525409,Sense informació,_SENSE_INFORMACI_,icono_-32(46).png,[]
2023-06-16 20:50:04.207253,16/06/2023,20:00,43,Platja de la Fonollera i Mas Pinell,42.012971643403,3.1958314021638,Sense informació,_SENSE_INFORMACI_,icono_-32(46).png,[]
2023-06-16 20:50:05.635623,16/06/2023,20:00,44,Platja del Grau,41.998447010977,3.1992642984294,Sense informació,_SENSE_INFORMACI_,icono_-32(46).png,[]
2023-06-16 20:50:06.932852,16/06/2023,20:00,45,Platja Gran,41.983150313938,3.2062663714709,Sense informació,_SENSE_INFORMACI_,icono_-32(46).png,[]
2023-06-16 20:50:08.454436,16/06/2023,20:00,46,Platja del Racó,41.980598649101,3.2078032308232,Sense informació,_SENSE_INFORMACI_,icono_-32(46).png,[]
2023-06-16 20:50:11.325360,16/06/2023,20:00,48,Platja de sa Riera,41.973054276372,3.2109650875895,Sense informació,_SENSE_INFORMACI_,icono_-32(46).png,[]
2023-06-16 20:50:15.538922,16/06/2023,20:00,51,Platja d'Aiguablava,41.933982188334,3.2162763587963,Sense informació,_SENSE_INFORMACI_,icono_-32(46).png,[]
2023-06-16 20:50:16.956744,16/06/2023,20:00,52,Platja de Tamariu,41.917695609444,3.2077799279301,Sense informació,_SENSE_INFORMACI_,icono_-32(46).png,[]
2023-06-16 20:50:18.209758,16/06/2023,20:00,53,Platja de Llafranc,41.893517976218,3.1942606254437,Sense informació,_SENSE_INFORMACI_,icono_-32(46).png,[]
2023-06-16 20:50:19.560314,16/06/2023,20:00,54,Platja del Canadell,41.888494636878,3.1873506913736,Sense informació,_SENSE_INFORMACI_,icono_-32(46).png,[]
2023-06-16 20:50:20.993024,16/06/2023,20:00,55,Platja de Port Bo,41.888273122042,3.1850960105222,Sense informació,_SENSE_INFORMACI_,icono_-32(46).png,[]
2023-06-16 20:50:26.115757,16/06/2023,20:00,59,Cala Estreta,41.865891137418,3.1735242128186,Sense informació,_SENSE_INFORMACI_,icono_-32(46).png,[]
2023-06-16 20:50:27.804453,16/06/2023,20:00,60,Platja de Castell,41.862484186982,3.1563454431433,Sense informació,_SENSE_INFORMACI_,icono_-32(46).png,[]
2023-06-16 20:50:29.102570,16/06/2023,20:00,61,Platja de la Fosca,41.856395441636,3.1425721730605,Sense informació,_SENSE_INFORMACI_,icono_-32(46).png,[]
2023-06-16 20:50:31.844593,16/06/2023,20:00,63,Platja del Morro del Vedell,41.848772644892,3.1376162876503,Sense informació,_SENSE_INFORMACI_,icono_-32(46).png,[]
2023-06-16 20:50:33.237272,16/06/2023,20:00,64,Platja Gran,41.848044307087,3.1204972116535,Sense informació,_SENSE_INFORMACI_,icono_-32(46).png,[]
2023-06-16 20:50:34.681225,01/12/2022,20:00,65,Platja d'es Monestrí,41.848634477964,3.1159087107782,Sense informació,_SENSE_INFORMACI_,icono_-32(46).png,[]
2023-06-16 20:50:36.198226,01/12/2022,20:00,66,Platja de Sant Antoni,41.846464863631,3.1054731235656,Sense informació,_SENSE_INFORMACI_,icono_-32(46).png,[]
2023-06-16 20:50:37.617223,01/12/2022,20:00,67,Platja de Torre Valentina,41.83955630846,3.0954648316799,Sense informació,_SENSE_INFORMACI_,icono_-32(46).png,[]
2023-06-16 20:50:39.056247,01/12/2022,20:00,68,Cala Cristus- Ses Torretes,41.831303444695,3.0873115224906,Sense informació,_SENSE_INFORMACI_,icono_-32(46).png,[]
2023-06-16 20:50:41.145691,16/06/2023,20:00,70,Cala Rovira,41.822017377494,3.0743907104439,Sense informació,_SENSE_INFORMACI_,icono_-32(46).png,[]
2023-06-16 20:50:42.849581,16/06/2023,20:00,71,Platja Gran,41.808475716066,3.0665619312071,Sense informació,_SENSE_INFORMACI_,icono_-32(46).png,[]
2023-06-16 20:50:44.345059,16/06/2023,20:00,72,Platja de sa Conca,41.798039659247,3.0611105254367,Sense informació,_SENSE_INFORMACI_,icono_-32(46).png,[]
2023-06-16 20:50:46.251677,16/06/2023,20:00,73,Platja de Sant Pol,41.790765992455,3.0531000902406,Sense informació,_SENSE_INFORMACI_,icono_-32(46).png,[]
2023-06-16 20:50:47.735216,16/06/2023,20:00,74,Platja de Sant Feliu,41.780073704422,3.0312025523598,Sense informació,_SENSE_INFORMACI_,icono_-32(46).png,[]
2023-06-16 20:50:54.147173,16/06/2023,20:00,79,Platja de la Mar Menuda,41.721974701761,2.9380238400018,Sense informació,_SENSE_INFORMACI_,icono_-32(46).png,[]
2023-06-16 20:50:55.623122,16/06/2023,20:00,80,Platja Gran,41.719540686424,2.9342512458012,Sense informació,_SENSE_INFORMACI_,icono_-32(46).png,[]
2023-06-16 20:50:57.008696,16/06/2023,20:00,81,Platja d'es Codolar,41.715756719614,2.9325600886616,Sense informació,_SENSE_INFORMACI_,icono_-32(46).png,[]
2023-06-16 20:50:59.607240,16/06/2023,20:00,83,Cala Canyelles,41.70415160028,2.8828006632717,Sense informació,_SENSE_INFORMACI_,icono_-32(46).png,[]
2023-06-16 20:51:01.247201,16/06/2023,20:00,84,Platja de Lloret,41.697245339442,2.8464469669299,Sense informació,_SENSE_INFORMACI_,icono_-32(46).png,[]
2023-06-16 20:51:02.720302,16/06/2023,20:00,85,Platja de Fenals,41.69446371372,2.8346044227506,Sense informació,_SENSE_INFORMACI_,icono_-32(46).png,[]
2023-06-16 20:51:04.004741,16/06/2023,20:00,86,Platja de sa Boadella,41.69058425226,2.8242319479239,Sense informació,_SENSE_INFORMACI_,icono_-32(46).png,[]
2023-06-16 20:51:05.410581,16/06/2023,20:00,87,Platja de Santa Cristina,41.687872392502,2.8179909180553,Sense informació,_SENSE_INFORMACI_,icono_-32(46).png,[]
2023-06-16 20:51:06.772127,16/06/2023,20:00,88,Cala de Sant Francesc,41.678793861428,2.8073596508894,Sense informació,_SENSE_INFORMACI_,icono_-32(46).png,[]
2023-06-16 20:51:08.265832,16/06/2023,20:00,89,Platja de Blanes,41.673644217732,2.7932230707804,Sense informació,_SENSE_INFORMACI_,icono_-32(46).png,[]
2023-06-16 20:51:09.795333,16/06/2023,20:00,90,Platja de s'Abanell,41.661376426198,2.7834371218386,Sense informació,_SENSE_INFORMACI_,icono_-32(46).png,[]
2023-06-16 20:51:11.227316,16/06/2023,20:00,91,Platja de la Punta de la Tordera- de la Conca,41.649147111322,2.7753359991846,Sense informació,_SENSE_INFORMACI_,icono_-32(46).png,[]
2023-06-16 20:51:13.361265,16/06/2023,20:00,93,Platja de Malgrat Centre,41.636775719344,2.7312784550594,Sense informació,_SENSE_INFORMACI_,icono_-32(46).png,[]
2023-06-16 20:51:14.693338,16/06/2023,20:00,94,Platja de l'Astillero,41.636775719344,2.7312784550594,Sense informació,_SENSE_INFORMACI_,icono_-32(46).png,[]
2023-06-16 20:51:16.234098,16/06/2023,20:00,95,Platja de Llevant - les Caletes,41.629016946748,2.714851506193,Sense informació,_SENSE_INFORMACI_,icono_-32(46).png,[]
2023-06-16 20:51:17.545130,16/06/2023,20:00,96,Platja de les Dunes,41.629016738266,2.7147674705051,Sense informació,_SENSE_INFORMACI_,icono_-32(46).png,[]
2023-06-16 20:51:18.921231,16/06/2023,20:00,97,Platja dels Pins,41.623467631667,2.7003508749835,Sense informació,_SENSE_INFORMACI_,icono_-32(46).png,[]
2023-06-16 20:51:20.321229,16/06/2023,20:00,98,Platja dels Pescadors,41.616694804155,2.6772885679023,Sense informació,_SENSE_INFORMACI_,icono_-32(46).png,[]
2023-06-16 20:51:22.380143,16/06/2023,20:00,100,Platja del Poblenou- la Riera,41.616694804155,2.6772885679023,Sense informació,_SENSE_INFORMACI_,icono_-32(46).png,[]
2023-06-16 20:51:23.732434,16/06/2023,20:00,101,Platja Gran,0.0,-1.4887438971664,Sense informació,_SENSE_INFORMACI_,icono_-32(46).png,[]
2023-06-16 20:51:25.156638,16/06/2023,20:00,102,Platja de Garbí,41.610197915626,2.6546736782755,Sense informació,_SENSE_INFORMACI_,icono_-32(46).png,[]
2023-06-16 20:51:27.777737,16/06/2023,20:00,104,Platja de la Platjola i el Morer,41.6029153155,2.6299917264038,Sense informació,_SENSE_INFORMACI_,icono_-32(46).png,[]
2023-06-16 20:51:29.866677,16/06/2023,20:00,106,Platja de les Barques,41.600942954914,2.6245069877988,Sense informació,_SENSE_INFORMACI_,icono_-32(46).png,[]
2023-06-16 20:51:31.212685,16/06/2023,20:00,107,Platja de Can Villar,41.597751116242,2.6153459333312,Sense informació,_SENSE_INFORMACI_,icono_-32(46).png,[]
2023-06-16 20:51:35.300489,16/06/2023,20:00,110,Platja de Canet,41.588061686279,2.5874609909206,Sense informació,_SENSE_INFORMACI_,icono_-32(46).png,[]
2023-06-16 20:51:36.574627,16/06/2023,20:00,111,Platja de Cavaió,41.583795643622,2.5760191775077,Sense informació,_SENSE_INFORMACI_,icono_-32(46).png,[]
2023-06-16 20:51:37.912472,16/06/2023,20:00,112,Platja de Cavaió,41.580455660735,2.5668159401585,Sense informació,_SENSE_INFORMACI_,icono_-32(46).png,[]
2023-06-16 20:51:39.355161,16/06/2023,20:00,113,Platja de la Picòrdia,41.57634375796,2.5446518439592,Sense informació,_SENSE_INFORMACI_,icono_-32(46).png,[]
2023-06-16 20:51:41.406456,16/06/2023,20:00,115,Platja de la Musclera,41.570409747343,2.5338626246285,Sense informació,_SENSE_INFORMACI_,icono_-32(46).png,[]
2023-06-16 20:51:45.373088,16/06/2023,20:00,118,Platja de Sant Vicenç,41.564019930101,2.5176938008672,Sense informació,_SENSE_INFORMACI_,icono_-32(46).png,[]
2023-06-16 20:51:46.708082,16/06/2023,20:00,119,Platja de les Barques - l'Estació,41.556410809602,2.5012857035747,Sense informació,_SENSE_INFORMACI_,icono_-32(46).png,[]
2023-06-16 20:51:48.752152,16/06/2023,20:00,121,Platja de Sant Simó,41.542009693885,2.4597702805891,Sense informació,_SENSE_INFORMACI_,icono_-32(46).png,[]
2023-06-16 20:51:50.121568,16/06/2023,20:00,122,Platja del Callao,41.539106875639,2.4554306108427,Sense informació,_SENSE_INFORMACI_,icono_-32(46).png,[]
2023-06-16 20:51:51.472564,16/06/2023,20:00,123,Platja del Varador,41.535309226105,2.4504755263813,Sense informació,_SENSE_INFORMACI_,icono_-32(46).png,[]
2023-06-16 20:51:54.220277,16/06/2023,20:00,124,Platja de Ponent,41.52876774771,2.4406898650633,Sense informació,_SENSE_INFORMACI_,icono_-32(46).png,[]
2023-06-16 20:51:56.445031,16/06/2023,20:00,126,Platja de Cabrera (Vinyals),41.507465534542,2.4048412901368,Sense informació,_SENSE_INFORMACI_,icono_-32(46).png,[]
2023-06-16 20:51:58.600798,16/06/2023,20:00,128,Platja de l'Astillero - l'Almadrava,41.504417987185,2.3990578680924,Sense informació,_SENSE_INFORMACI_,icono_-32(46).png,[]
2023-06-16 20:52:00.019405,16/06/2023,20:00,129,Platja de Ponent,41.498057623062,2.3852067867651,Sense informació,_SENSE_INFORMACI_,icono_-32(46).png,[]
2023-06-16 20:52:01.495619,16/06/2023,20:00,130,Platja de Llevant,0.0,-1.4887438971664,Sense informació,_SENSE_INFORMACI_,icono_-32(46).png,[]
2023-06-16 20:52:04.793058,16/06/2023,20:00,133,Platja del Pla de l'Ós- Descàrrega,41.487626235325,2.3554417154751,Sense informació,_SENSE_INFORMACI_,icono_-32(46).png,[]
2023-06-16 20:52:07.293138,16/06/2023,20:00,135,Platja d'Ocata,41.477684685782,2.3199200941791,Sense informació,_SENSE_INFORMACI_,icono_-32(46).png,[]
2023-06-16 20:52:08.603541,16/06/2023,20:00,136,Platja del Masnou,41.475108951044,2.3049162639625,Sense informació,_SENSE_INFORMACI_,icono_-32(46).png,[]
2023-06-16 20:52:10.014226,16/06/2023,20:00,137,Platja de Monsolís -les Barques,41.468406238555,2.287060600628,Sense informació,_SENSE_INFORMACI_,icono_-32(46).png,[]
2023-06-16 20:52:12.024268,16/06/2023,20:00,139,Platja de les Roques,41.464399760381,2.2772492978992,Sense informació,_SENSE_INFORMACI_,icono_-32(46).png,[]
2023-06-16 20:52:13.960324,16/06/2023,20:00,141,Platja de Cristall,41.454099780717,2.2595480957504,Sense informació,_SENSE_INFORMACI_,icono_-32(46).png,[]
2023-06-16 20:52:16.177271,16/06/2023,20:00,143,Platja dels Pescadors,41.446569998148,2.2512656852142,Sense informació,_SENSE_INFORMACI_,icono_-32(46).png,[]
2023-06-16 20:52:20.157269,16/06/2023,20:00,147,Platja de Coco,41.438701968931,2.2450599158731,Sense informació,_SENSE_INFORMACI_,icono_-32(46).png,[]
2023-06-16 20:52:22.392492,16/06/2023,20:00,149,Platja del Litoral,41.421982291685,2.2352372980518,Sense informació,_SENSE_INFORMACI_,icono_-32(46).png,[]
2023-06-16 20:52:23.874501,16/06/2023,20:00,150,Platja del Fòrum,41.416807060406,2.2317919861506,Sense informació,_SENSE_INFORMACI_,icono_-32(46).png,[]
2023-06-16 20:52:25.333576,16/06/2023,20:00,151,Zona de Banys Fòrum,41.409775136883,2.2268496750303,Sense informació,_SENSE_INFORMACI_,icono_-32(46).png,[]
2023-06-16 20:52:26.838973,16/06/2023,20:00,152,Platja de Llevant,41.404818309454,2.2184500675217,Sense informació,_SENSE_INFORMACI_,icono_-32(46).png,[]
2023-06-16 20:52:28.369045,16/06/2023,20:00,153,Platja de la Nova Mar Bella,41.401868963879,2.2152314154427,Sense informació,_SENSE_INFORMACI_,icono_-32(46).png,[]
2023-06-16 20:52:29.769045,16/06/2023,20:00,154,Platja de la Mar Bella,41.39828815496,2.211889092231,Sense informació,_SENSE_INFORMACI_,icono_-32(46).png,[]
2023-06-16 20:52:31.032648,16/06/2023,20:00,155,Platja del Bogatell,41.394117638021,2.2066404017632,Sense informació,_SENSE_INFORMACI_,icono_-32(46).png,[]
2023-06-16 20:52:32.424578,16/06/2023,20:00,156,Platja de la Nova Icària,41.390467569537,2.2024385871148,Sense informació,_SENSE_INFORMACI_,icono_-32(46).png,[]
2023-06-16 20:52:33.792563,16/06/2023,20:00,157,Platja del Somorrostro,41.382120638522,2.1951136878575,Sense informació,_SENSE_INFORMACI_,icono_-32(46).png,[]
2023-06-16 20:52:35.098728,16/06/2023,20:00,158,Platja de la Barceloneta,41.380574709835,2.1943075589302,Sense informació,_SENSE_INFORMACI_,icono_-32(46).png,[]
2023-06-16 20:52:36.377809,16/06/2023,20:00,159,Platja de Sant Miquel,41.376248597736,2.1913832829702,Sense informació,_SENSE_INFORMACI_,icono_-32(46).png,[]
2023-06-16 20:52:37.643114,16/06/2023,20:00,160,Platja de Sant Sebastià,41.372327471678,2.1896979659343,Sense informació,_SENSE_INFORMACI_,icono_-32(46).png,[]
2023-06-16 20:52:39.652895,16/06/2023,20:00,162,Platja del Remolar- Pineda de Cal Francès,41.275028516373,2.0662013319061,Sense informació,_SENSE_INFORMACI_,icono_-32(46).png,[]
2023-06-16 20:52:41.214019,16/06/2023,20:00,163,Platja de Gavà,41.26581617619,2.0199046987666,Sense informació,_SENSE_INFORMACI_,icono_-32(46).png,[]
2023-06-16 20:52:43.582941,16/06/2023,20:00,164,Platja de la Pineda,41.263958952309,1.9925827273801,Sense informació,_SENSE_INFORMACI_,icono_-32(46).png,[]
2023-06-16 20:52:45.025048,16/06/2023,20:00,165,Platja de les Lluminetes,41.264006354566,1.9754988576444,Sense informació,_SENSE_INFORMACI_,icono_-32(46).png,[]
2023-06-16 20:52:46.554743,16/06/2023,20:00,166,Platja del Baixador,41.263775689677,1.9479260266039,Sense informació,_SENSE_INFORMACI_,icono_-32(46).png,[]
2023-06-16 20:52:47.890522,16/06/2023,20:00,167,Platja de les Botigues,41.261775734073,1.9332153443612,Sense informació,_SENSE_INFORMACI_,icono_-32(46).png,[]
2023-06-16 20:52:49.256076,16/06/2023,20:00,168,Platja del Garraf,41.252746506686,1.8079767382934,Sense informació,_SENSE_INFORMACI_,icono_-32(46).png,[]
2023-06-16 20:52:50.620850,16/06/2023,20:00,169,Platja d'Aiguadolç,41.236223044103,1.827810941185,Sense informació,_SENSE_INFORMACI_,icono_-32(46).png,[]
2023-06-16 20:52:51.886906,16/06/2023,20:00,170,Platja dels Balmins,41.23580612582,1.8205036540361,Sense informació,_SENSE_INFORMACI_,icono_-32(46).png,[]
2023-06-16 20:52:53.165273,16/06/2023,20:00,171,Platja de Sant Sebastià,41.236205881866,1.8146971481653,Sense informació,_SENSE_INFORMACI_,icono_-32(46).png,[]
2023-06-16 20:52:55.257370,16/06/2023,20:00,173,Platja de la Ribera,41.234365209654,1.8082868978651,Sense informació,_SENSE_INFORMACI_,icono_-32(46).png,[]
2023-06-16 20:52:57.354699,16/06/2023,20:00,175,Platja de l'Estanyol,41.231825008401,1.7996107795283,Sense informació,_SENSE_INFORMACI_,icono_-32(46).png,[]
2023-06-16 20:52:59.414867,16/06/2023,20:00,177,Platja de la Barra,41.228099902123,1.7922457424675,Sense informació,_SENSE_INFORMACI_,icono_-32(46).png,[]
2023-06-16 20:53:00.889708,16/06/2023,20:00,178,Platja de Terramar,41.226462424175,1.789853891713,Sense informació,_SENSE_INFORMACI_,icono_-32(46).png,[]
2023-06-16 20:53:03.041192,16/06/2023,20:00,180,Platja del Far de S. Cristòfol,41.215502334745,1.7388568480942,Sense informació,_SENSE_INFORMACI_,icono_-32(46).png,[]
2023-06-16 20:53:04.444733,16/06/2023,20:00,181,Platja de Ribes-roges,41.211943848511,1.724909456349,Sense informació,_SENSE_INFORMACI_,icono_-32(46).png,[]
2023-06-16 20:53:05.878799,16/06/2023,20:00,182,Platja d'Adarró,41.21134545456,1.7164520717704,Sense informació,_SENSE_INFORMACI_,icono_-32(46).png,[]
2023-06-16 20:53:07.333100,16/06/2023,20:00,183,Platja de Sant Gervasi,41.210005976146,1.7118502189238,Sense informació,_SENSE_INFORMACI_,icono_-32(46).png,[]
2023-06-16 20:53:09.823737,16/06/2023,20:00,185,Platja d'Ibersol,41.203626928879,1.6854025178517,Sense informació,_SENSE_INFORMACI_,icono_-32(46).png,[]
2023-06-16 20:53:11.407737,16/06/2023,20:00,186,Platja Llarga,41.201178681595,1.6808360382307,Sense informació,_SENSE_INFORMACI_,icono_-32(46).png,[]
2023-06-16 20:53:12.728752,16/06/2023,20:00,187,Platja de la Mota de Sant Pere,41.197974673287,1.6701076058795,Sense informació,_SENSE_INFORMACI_,icono_-32(46).png,[]
2023-06-16 20:53:14.071741,16/06/2023,20:00,188,Platja de les Salines,41.195944207291,1.6573647433448,Sense informació,_SENSE_INFORMACI_,icono_-32(46).png,[]
2023-06-16 20:53:15.473736,16/06/2023,20:00,189,Platja de les Gavines,41.19499223244,1.6460672206857,Sense informació,_SENSE_INFORMACI_,icono_-32(46).png,[]
2023-06-16 20:53:16.967771,16/06/2023,20:00,190,Platja de Cunit Llevant,41.192959639893,1.6348878850593,Sense informació,_SENSE_INFORMACI_,icono_-32(46).png,[]
2023-06-16 20:53:18.568773,16/06/2023,20:00,191,Platja de Segur de Calafell,41.188801150808,1.6006211928006,Sense informació,_SENSE_INFORMACI_,icono_-32(46).png,[]
2023-06-16 20:53:19.927735,16/06/2023,20:00,192,Platja de l'Estany-Mas Mel,41.188150495747,1.5886396250873,Sense informació,_SENSE_INFORMACI_,icono_-32(46).png,[]
2023-06-16 20:53:21.480336,16/06/2023,20:00,193,Platja de Calafell,41.18625839246,1.5710692123581,Sense informació,_SENSE_INFORMACI_,icono_-32(46).png,[]
2023-06-16 20:53:23.075340,16/06/2023,20:00,194,Platja de Sant Salvador,41.182994372502,1.5427755564115,Sense informació,_SENSE_INFORMACI_,icono_-32(46).png,[]
2023-06-16 20:53:24.847731,16/06/2023,20:00,195,Platja de Coma-ruga,41.180449389316,1.5240064481359,Sense informació,_SENSE_INFORMACI_,icono_-32(46).png,[]
2023-06-16 20:53:26.367768,16/06/2023,20:00,196,Platja del Francàs,41.17535494276,1.5026740533088,Sense informació,_SENSE_INFORMACI_,icono_-32(46).png,[]
2023-06-16 20:53:27.715526,16/06/2023,20:00,197,Platja de la Costa Daurada,41.170338915321,1.4889723359421,Sense informació,_SENSE_INFORMACI_,icono_-32(46).png,[]
2023-06-16 20:53:31.862884,16/06/2023,20:00,200,Platja Llarga,41.165614769917,1.4661712099269,Sense informació,_SENSE_INFORMACI_,icono_-32(46).png,[]
2023-06-16 20:53:33.295818,16/06/2023,20:00,201,Platja de Creixell,41.156025386379,1.4422848019115,Sense informació,_SENSE_INFORMACI_,icono_-32(46).png,[]
2023-06-16 20:53:34.548909,16/06/2023,20:00,202,Platja dels Muntanyans,41.146268399657,1.4196724944992,Sense informació,_SENSE_INFORMACI_,icono_-32(46).png,[]
2023-06-16 20:53:35.851882,16/06/2023,20:00,203,Platja del Barri Marítim,41.143486934269,1.4132571728329,Sense informació,_SENSE_INFORMACI_,icono_-32(46).png,[]
2023-06-16 20:53:37.193896,16/06/2023,20:00,204,Platja de la Paella,41.139913156509,1.4062419906541,Sense informació,_SENSE_INFORMACI_,icono_-32(46).png,[]
2023-06-16 20:53:38.459907,16/06/2023,20:00,205,Platja del Canyadell,41.132349213814,1.3902225852882,Sense informació,_SENSE_INFORMACI_,icono_-32(46).png,[]
2023-06-16 20:53:39.765893,16/06/2023,20:00,206,Platja d'Altafulla,41.134370623023,1.3821312252341,Sense informació,_SENSE_INFORMACI_,icono_-32(46).png,[]
2023-06-16 20:53:41.889923,16/06/2023,20:00,208,Platja de Tamarit,41.130248549515,1.3626114471976,Sense informació,_SENSE_INFORMACI_,icono_-32(46).png,[]
2023-06-16 20:53:43.961612,16/06/2023,20:00,210,Platja de la Móra,41.127944515602,1.3469796024841,Sense informació,_SENSE_INFORMACI_,icono_-32(46).png,[]
2023-06-16 20:53:46.902609,16/06/2023,20:00,213,Platja Llarga,41.128624032857,1.3038855528765,Sense informació,_SENSE_INFORMACI_,icono_-32(46).png,[]
2023-06-16 20:53:50.474129,16/06/2023,20:00,217,Platja de la Savinosa,41.12271312207,1.2848955466845,Sense informació,_SENSE_INFORMACI_,icono_-32(46).png,[]
2023-06-16 20:53:51.749117,16/06/2023,20:00,218,Platja de l'Arrabassada,41.118954578696,1.2762864073596,Sense informació,_SENSE_INFORMACI_,icono_-32(46).png,[]
2023-06-16 20:53:53.070623,16/06/2023,20:00,219,Platja del Miracle,41.114194509063,1.2622258835189,Sense informació,_SENSE_INFORMACI_,icono_-32(46).png,[]
2023-06-16 20:53:55.188623,16/06/2023,20:00,221,Platja de la Pineda,41.079563052673,1.1852750478943,Sense informació,_SENSE_INFORMACI_,icono_-32(46).png,[]
2023-06-16 20:53:56.517622,16/06/2023,20:00,222,Platja del Racó,41.067382250887,1.1793974070461,Sense informació,_SENSE_INFORMACI_,icono_-32(46).png,[]
2023-06-16 20:53:57.863626,16/06/2023,20:00,223,Cala Crancs,41.056423516786,1.1676809900815,Sense informació,_SENSE_INFORMACI_,icono_-32(46).png,[]
2023-06-16 20:54:00.658150,16/06/2023,20:00,225,Platja Llarga,41.065320748526,1.1551280211854,Sense informació,_SENSE_INFORMACI_,icono_-32(46).png,[]
2023-06-16 20:54:02.459030,16/06/2023,20:00,226,Platja Capellans,41.068271974443,1.1481900575559,Sense informació,_SENSE_INFORMACI_,icono_-32(46).png,[]
2023-06-16 20:54:04.048566,16/06/2023,20:00,227,Platja de Llevant,41.073477083085,1.1352723017828,Sense informació,_SENSE_INFORMACI_,icono_-32(46).png,[]
2023-06-16 20:54:05.456567,16/06/2023,20:00,228,Platja de Ponent,41.074876509675,1.1254841914737,Sense informació,_SENSE_INFORMACI_,icono_-32(46).png,[]
2023-06-16 20:54:06.816093,16/06/2023,20:00,229,Platja del Cap de Sant Pere,41.072324958385,1.1142969062962,Sense informació,_SENSE_INFORMACI_,icono_-32(46).png,[]
2023-06-16 20:54:08.105092,16/06/2023,20:00,230,Platja de Vilafortuny,41.069865092566,1.1021794964984,Sense informació,_SENSE_INFORMACI_,icono_-32(46).png,[]
2023-06-16 20:54:09.547096,16/06/2023,20:00,231,Platja de l'Esquirol,41.066622925891,1.0923945279686,Sense informació,_SENSE_INFORMACI_,icono_-32(46).png,[]
2023-06-16 20:54:10.714340,16/06/2023,20:00,232,Platja de Cavet,41.064245472214,1.0799552714078,Sense informació,_SENSE_INFORMACI_,icono_-32(46).png,[]
2023-06-16 20:54:12.043340,16/06/2023,20:00,233,Platja del Prat d'en Forés-Regueral,41.065828136459,1.0690195243151,Sense informació,_SENSE_INFORMACI_,icono_-32(46).png,[]
2023-06-16 20:54:13.424065,16/06/2023,20:00,234,Platja de la Riera,41.063580585685,1.0558872062892,Sense informació,_SENSE_INFORMACI_,icono_-32(46).png,[]
2023-06-16 20:54:14.814762,16/06/2023,20:00,235,Platja de l'Horta de Santa Maria,41.064091512848,1.0525398813016,Sense informació,_SENSE_INFORMACI_,icono_-32(46).png,[]
2023-06-16 20:54:16.175043,16/06/2023,20:00,236,Platja de la Llosa,41.063205543692,1.0464966148408,Sense informació,_SENSE_INFORMACI_,icono_-32(46).png,[]
2023-06-16 20:54:17.518460,16/06/2023,20:00,237,Platja de l'Estany,41.269665774965,2.0427818633591,Sense informació,_SENSE_INFORMACI_,icono_-32(46).png,[]
2023-06-16 20:54:19.160262,16/06/2023,20:00,238,Platja de l'Ardiaca,41.055755147124,1.0294986163483,Sense informació,_SENSE_INFORMACI_,icono_-32(46).png,[]
2023-06-16 20:54:21.279393,16/06/2023,20:00,240,Platja de la Pixerota,41.044851709882,1.0056840642434,Sense informació,_SENSE_INFORMACI_,icono_-32(46).png,[]
2023-06-16 20:54:22.580400,16/06/2023,20:00,241,Platja de la Porquerola,41.034623237399,0.97697954842933,Sense informació,_SENSE_INFORMACI_,icono_-32(46).png,[]
2023-06-16 20:54:23.933163,16/06/2023,20:00,242,Platja de la Casa dels lladres,41.027906541309,0.96588557309922,Sense informació,_SENSE_INFORMACI_,icono_-32(46).png,[]
2023-06-16 20:54:26.568052,16/06/2023,20:00,243,Cala del Vienesos-platja dels Espenyals,41.01652868413,0.95207202879475,Sense informació,_SENSE_INFORMACI_,icono_-32(46).png,[]
2023-06-16 20:54:27.966137,16/06/2023,20:00,244,Platja Cristall,40.999130619831,0.93615625673566,Sense informació,_SENSE_INFORMACI_,icono_-32(46).png,[]
2023-06-16 20:54:29.315853,16/06/2023,20:00,245,Platja de la Punta del riu,40.990535680876,0.93052815890304,Sense informació,_SENSE_INFORMACI_,icono_-32(46).png,[]
2023-06-16 20:54:31.997735,16/06/2023,20:00,246,Platja de l'Arenal,40.987613406623,0.91582017449322,Sense informació,_SENSE_INFORMACI_,icono_-32(46).png,[]
2023-06-16 20:54:33.346694,16/06/2023,20:00,247,Platja del Torn,40.97002027231,0.89343823361539,Sense informació,_SENSE_INFORMACI_,icono_-32(46).png,[]
2023-06-16 20:54:35.044439,16/06/2023,20:00,248,Platja de l'Almadrava,40.939182506783,0.85796416867759,Sense informació,_SENSE_INFORMACI_,icono_-32(46).png,[]
2023-06-16 20:54:36.330206,16/06/2023,20:00,249,Cala Calafató,40.9221357093,0.84129581336596,Sense informació,_SENSE_INFORMACI_,icono_-32(46).png,[]
2023-06-16 20:54:37.752851,16/06/2023,20:00,250,Platja Sant Jordi d'Alfama,40.912094315636,0.83227822778743,Sense informació,_SENSE_INFORMACI_,icono_-32(46).png,[]
2023-06-16 20:54:39.049182,16/06/2023,20:00,251,Cala Forn,40.908272916148,0.8264192381245,Sense informació,_SENSE_INFORMACI_,icono_-32(46).png,[]
2023-06-16 20:54:40.364698,16/06/2023,20:00,252,Platja de Pixavaques,40.886862404168,0.80693133925294,Sense informació,_SENSE_INFORMACI_,icono_-32(46).png,[]
2023-06-16 20:54:41.861562,16/06/2023,20:00,253,Platja de l'Alguer,40.88446739366,0.80556249285564,Sense informació,_SENSE_INFORMACI_,icono_-32(46).png,[]
2023-06-16 20:54:46.185552,16/06/2023,20:00,256,Platja de Santa Llúcia,40.827900375872,0.74165134235169,Sense informació,_SENSE_INFORMACI_,icono_-32(46).png,[]
2023-06-16 20:54:49.153775,16/06/2023,20:00,258,Platja del Cap Roig,40.821794398082,0.73252699060494,Sense informació,_SENSE_INFORMACI_,icono_-32(46).png,[]
2023-06-16 20:54:50.551955,16/06/2023,20:00,259,Platja de les Avellanes,40.812628169567,0.71490187254377,Sense informació,_SENSE_INFORMACI_,icono_-32(46).png,[]
2023-06-16 20:54:51.900940,16/06/2023,20:00,260,Platja de l'Arenal,40.793456626705,0.70428834230694,Sense informació,_SENSE_INFORMACI_,icono_-32(46).png,[]
2023-06-16 20:54:53.215302,16/06/2023,20:00,261,Platja de la Marquesa,40.760417999771,0.80049202793842,Sense informació,_SENSE_INFORMACI_,icono_-32(46).png,[]
2023-06-16 20:54:57.508860,16/06/2023,20:00,263,Platja de Riumar,40.730702029048,0.84200315331873,Sense informació,_SENSE_INFORMACI_,icono_-32(46).png,[]
2023-06-16 20:55:00.322409,16/06/2023,20:00,265,Platja del Serrallo,40.67042521796,0.8272794665772,Sense informació,_SENSE_INFORMACI_,icono_-32(46).png,[]
2023-06-16 20:55:03.188096,01/12/2022,20:00,267,Platja del Trabucador,40.623105864166,0.7385655924494,Sense informació,_SENSE_INFORMACI_,icono_-32(46).png,[]
2023-06-16 20:55:06.057070,01/12/2022,20:00,269,Platja del Parc de Garbí,40.613661853592,0.59271661145727,Sense informació,_SENSE_INFORMACI_,icono_-32(46).png,[]
2023-06-16 20:55:11.461861,01/12/2022,20:00,275,Platja de les Delícies,40.606377946137,0.58381861583436,Sense informació,_SENSE_INFORMACI_,icono_-32(46).png,[]
2023-06-16 20:55:13.664860,16/06/2023,20:00,277,Platja de la Martinenca,40.572927028126,0.54682037719963,Sense informació,_SENSE_INFORMACI_,icono_-32(46).png,[]
2023-06-16 20:55:15.708026,16/06/2023,20:00,278,Platja del Maricel,40.568761058929,0.53983812944421,Sense informació,_SENSE_INFORMACI_,icono_-32(46).png,[]
2023-06-16 20:55:17.482952,16/06/2023,20:00,279,Platja de les Cases d'Alcanar-Marjal,40.545226788511,0.5243696664454,Sense informació,_SENSE_INFORMACI_,icono_-32(46).png,[]
