scrape_time,page_date,page_hour,bay_id,bay_name,lat,lon,jellyfish_lab,jellyfish_lab2,jellyfish_icon,jellyfish_list
2023-11-03 07:19:32.844376,03/11/2023,08:00,0,Platja Gran,42.427199628058,3.1607680066534,Fora de temporada,_FORA_DE_TEMPORADA_,icono_-32(46).png,[]
2023-11-03 07:19:38.580367,03/11/2023,08:00,3,Platja de Grifeu,42.381122572465,3.155852154311,Fora de temporada,_FORA_DE_TEMPORADA_,icono_-32(46).png,[]
2023-11-03 07:19:40.132137,03/11/2023,08:00,4,Platja del Port,42.371389834866,3.1603341080741,Fora de temporada,_FORA_DE_TEMPORADA_,icono_-32(46).png,[]
2023-11-03 07:19:44.799840,03/11/2023,08:00,7,Platja del Port de la Vall,42.343017800844,3.1860476518737,Fora de temporada,_FORA_DE_TEMPORADA_,icono_-32(46).png,[]
2023-11-03 07:19:46.540940,03/11/2023,08:00,8,Platja del Port de la Selva,42.336064685865,3.2022324515734,Fora de temporada,_FORA_DE_TEMPORADA_,icono_-32(46).png,[]
2023-11-03 07:19:51.035026,03/11/2023,08:00,11,Platja d'en Ros,42.284555920494,3.2877098066108,Fora de temporada,_FORA_DE_TEMPORADA_,icono_-32(46).png,[]
2023-11-03 07:19:52.768607,03/11/2023,08:00,12,Platja Gran,42.288577711645,3.2783761325292,Fora de temporada,_FORA_DE_TEMPORADA_,icono_-32(46).png,[]
2023-11-03 07:19:54.177826,03/11/2023,08:00,13,Platja es Llané Gran,42.284387572183,3.2755801750091,Fora de temporada,_FORA_DE_TEMPORADA_,icono_-32(46).png,[]
2023-11-03 07:19:57.157066,03/11/2023,08:00,15,Platja de l'Almadrava,42.240751820077,3.2073699212645,Fora de temporada,_FORA_DE_TEMPORADA_,icono_-32(46).png,[]
2023-11-03 07:19:58.668295,03/11/2023,08:00,16,Platja de Canyelles Petites,42.247093292781,3.1965417444188,Fora de temporada,_FORA_DE_TEMPORADA_,icono_-32(46).png,[]
2023-11-03 07:20:00.206886,03/11/2023,08:00,17,Platja dels Palangrers,42.250548996256,3.1817995255545,Fora de temporada,_FORA_DE_TEMPORADA_,icono_-32(46).png,[]
2023-11-03 07:20:01.715954,03/11/2023,08:00,18,Platja de la Punta,42.259434612085,3.1783333092279,Fora de temporada,_FORA_DE_TEMPORADA_,icono_-32(46).png,[]
2023-11-03 07:20:04.343845,03/11/2023,08:00,20,Platja del Rastrell - Nova,42.264444593098,3.1707692709824,Fora de temporada,_FORA_DE_TEMPORADA_,icono_-32(46).png,[]
2023-11-03 07:20:06.640804,03/11/2023,08:00,22,Platja de Santa Margarida  - Salatar,42.261253114072,3.1539925579586,Fora de temporada,_FORA_DE_TEMPORADA_,icono_-32(46).png,[]
2023-11-03 07:20:08.133594,03/11/2023,08:00,23,Platja de la Rubina,42.251760933133,3.1395920353183,Fora de temporada,_FORA_DE_TEMPORADA_,icono_-32(46).png,[]
2023-11-03 07:20:09.996645,03/11/2023,08:00,24,Platja d'Empuriabrava,42.237464998368,3.1266286044584,Fora de temporada,_FORA_DE_TEMPORADA_,icono_-32(46).png,[]
2023-11-03 07:20:13.930756,03/11/2023,08:00,27,Platja  Can Sopa- la Gola,42.188837944827,3.1110541681406,Fora de temporada,_FORA_DE_TEMPORADA_,icono_-32(46).png,[]
2023-11-03 07:20:18.798634,03/11/2023,08:00,32,Platja cal Cristià - Cortal de la Vila,42.162258112747,3.11307772045,Fora de temporada,_FORA_DE_TEMPORADA_,icono_-32(46).png,[]
2023-11-03 07:20:20.231326,03/11/2023,08:00,33,Platja del Cortal de la Devesa,42.155599630417,3.1158256368126,Fora de temporada,_FORA_DE_TEMPORADA_,icono_-32(46).png,[]
2023-11-03 07:20:22.496966,03/11/2023,08:00,35,Platja del Moll Grec,42.137970096999,3.1196657924795,Fora de temporada,_FORA_DE_TEMPORADA_,icono_-32(46).png,[]
2023-11-03 07:20:23.937284,03/11/2023,08:00,36,Platja de les Muscleres,42.133824742521,3.121932809189,Fora de temporada,_FORA_DE_TEMPORADA_,icono_-32(46).png,[]
2023-11-03 07:20:27.910134,03/11/2023,08:00,39,La Platja,42.12662468693,3.1335216908257,Fora de temporada,_FORA_DE_TEMPORADA_,icono_-32(46).png,[]
2023-11-03 07:20:29.435550,03/11/2023,08:00,40,Platja de Riells,42.115414022008,3.1390867881384,Fora de temporada,_FORA_DE_TEMPORADA_,icono_-32(46).png,[]
2023-11-03 07:20:31.020463,03/11/2023,08:00,41,Cala Montgó,42.107537981712,3.1691621950559,Fora de temporada,_FORA_DE_TEMPORADA_,icono_-32(46).png,[]
2023-11-03 07:20:33.425719,03/11/2023,08:00,42,Platja de l'Estartit,42.040530061014,3.1969067525409,Fora de temporada,_FORA_DE_TEMPORADA_,icono_-32(46).png,[]
2023-11-03 07:20:34.915834,03/11/2023,08:00,43,Platja de la Fonollera i Mas Pinell,42.012971643403,3.1958314021638,Fora de temporada,_FORA_DE_TEMPORADA_,icono_-32(46).png,[]
2023-11-03 07:20:36.449628,03/11/2023,08:00,44,Platja del Grau,41.998447010977,3.1992642984294,Fora de temporada,_FORA_DE_TEMPORADA_,icono_-32(46).png,[]
2023-11-03 07:20:38.004715,03/11/2023,08:00,45,Platja Gran,41.983150313938,3.2062663714709,Fora de temporada,_FORA_DE_TEMPORADA_,icono_-32(46).png,[]
2023-11-03 07:20:39.632937,03/11/2023,08:00,46,Platja del Racó,41.980598649101,3.2078032308232,Fora de temporada,_FORA_DE_TEMPORADA_,icono_-32(46).png,[]
2023-11-03 07:20:42.820658,03/11/2023,08:00,48,Platja de sa Riera,41.973054276372,3.2109650875895,Fora de temporada,_FORA_DE_TEMPORADA_,icono_-32(46).png,[]
2023-11-03 07:20:44.255644,03/11/2023,08:00,49,Platja de sa Tuna,41.960300674631,3.2297840768147,Fora de temporada,_FORA_DE_TEMPORADA_,icono_-32(46).png,[]
2023-11-03 07:20:47.170436,03/11/2023,08:00,51,Platja d'Aiguablava,41.933982188334,3.2162763587963,Fora de temporada,_FORA_DE_TEMPORADA_,icono_-32(46).png,[]
2023-11-03 07:20:48.601171,03/11/2023,08:00,52,Platja de Tamariu,41.917695609444,3.2077799279301,Fora de temporada,_FORA_DE_TEMPORADA_,icono_-32(46).png,[]
2023-11-03 07:20:50.031314,03/11/2023,08:00,53,Platja de Llafranc,41.893517976218,3.1942606254437,Fora de temporada,_FORA_DE_TEMPORADA_,icono_-32(46).png,[]
2023-11-03 07:20:51.482003,03/11/2023,08:00,54,Platja del Canadell,41.888494636878,3.1873506913736,Fora de temporada,_FORA_DE_TEMPORADA_,icono_-32(46).png,[]
2023-11-03 07:20:52.970277,03/11/2023,08:00,55,Platja de Port Bo,41.888273122042,3.1850960105222,Fora de temporada,_FORA_DE_TEMPORADA_,icono_-32(46).png,[]
2023-11-03 07:20:58.173744,03/11/2023,08:00,59,Cala Estreta,41.865891137418,3.1735242128186,Fora de temporada,_FORA_DE_TEMPORADA_,icono_-32(46).png,[]
2023-11-03 07:20:59.607383,03/11/2023,08:00,60,Platja de Castell,41.862484186982,3.1563454431433,Fora de temporada,_FORA_DE_TEMPORADA_,icono_-32(46).png,[]
2023-11-03 07:21:01.145508,03/11/2023,08:00,61,Platja de la Fosca,41.856395441636,3.1425721730605,Fora de temporada,_FORA_DE_TEMPORADA_,icono_-32(46).png,[]
2023-11-03 07:21:04.354990,03/11/2023,08:00,63,Platja del Morro del Vedell,41.848772644892,3.1376162876503,Fora de temporada,_FORA_DE_TEMPORADA_,icono_-32(46).png,[]
2023-11-03 07:21:05.819632,03/11/2023,08:00,64,Platja Gran,41.848044307087,3.1204972116535,Fora de temporada,_FORA_DE_TEMPORADA_,icono_-32(46).png,[]
2023-11-03 07:21:07.442144,03/11/2023,08:00,65,Platja d'es Monestrí,41.848634477964,3.1159087107782,Fora de temporada,_FORA_DE_TEMPORADA_,icono_-32(46).png,[]
2023-11-03 07:21:08.900743,03/11/2023,08:00,66,Platja de Sant Antoni,41.846464863631,3.1054731235656,Fora de temporada,_FORA_DE_TEMPORADA_,icono_-32(46).png,[]
2023-11-03 07:21:10.365979,03/11/2023,08:00,67,Platja de Torre Valentina,41.83955630846,3.0954648316799,Fora de temporada,_FORA_DE_TEMPORADA_,icono_-32(46).png,[]
2023-11-03 07:21:11.866021,03/11/2023,08:00,68,Cala Cristus- Ses Torretes,41.831303444695,3.0873115224906,Fora de temporada,_FORA_DE_TEMPORADA_,icono_-32(46).png,[]
2023-11-03 07:21:14.278636,03/11/2023,08:00,70,Cala Rovira,41.822017377494,3.0743907104439,Fora de temporada,_FORA_DE_TEMPORADA_,icono_-32(46).png,[]
2023-11-03 07:21:16.094885,03/11/2023,08:00,71,Platja Gran,41.808475716066,3.0665619312071,Fora de temporada,_FORA_DE_TEMPORADA_,icono_-32(46).png,[]
2023-11-03 07:21:17.571980,03/11/2023,08:00,72,Platja de sa Conca,41.798039659247,3.0611105254367,Fora de temporada,_FORA_DE_TEMPORADA_,icono_-32(46).png,[]
2023-11-03 07:21:19.452617,03/11/2023,08:00,73,Platja de Sant Pol,41.790765992455,3.0531000902406,Fora de temporada,_FORA_DE_TEMPORADA_,icono_-32(46).png,[]
2023-11-03 07:21:20.863621,03/11/2023,08:00,74,Platja de Sant Feliu,41.780073704422,3.0312025523598,Fora de temporada,_FORA_DE_TEMPORADA_,icono_-32(46).png,[]
2023-11-03 07:21:27.632744,03/11/2023,08:00,79,Platja de la Mar Menuda,41.721974701761,2.9380238400018,Fora de temporada,_FORA_DE_TEMPORADA_,icono_-32(46).png,[]
2023-11-03 07:21:29.189069,03/11/2023,08:00,80,Platja Gran,41.719540686424,2.9342512458012,Fora de temporada,_FORA_DE_TEMPORADA_,icono_-32(46).png,[]
2023-11-03 07:21:30.690908,03/11/2023,08:00,81,Platja d'es Codolar,41.715756719614,2.9325600886616,Fora de temporada,_FORA_DE_TEMPORADA_,icono_-32(46).png,[]
2023-11-03 07:21:33.604419,03/11/2023,08:00,83,Cala Canyelles,41.70415160028,2.8828006632717,Fora de temporada,_FORA_DE_TEMPORADA_,icono_-32(46).png,[]
2023-11-03 07:21:35.347146,03/11/2023,08:00,84,Platja de Lloret,41.697245339442,2.8464469669299,Fora de temporada,_FORA_DE_TEMPORADA_,icono_-32(46).png,[]
2023-11-03 07:21:36.833631,03/11/2023,08:00,85,Platja de Fenals,41.69446371372,2.8346044227506,Fora de temporada,_FORA_DE_TEMPORADA_,icono_-32(46).png,[]
2023-11-03 07:21:38.189497,03/11/2023,08:00,86,Platja de sa Boadella,41.69058425226,2.8242319479239,Fora de temporada,_FORA_DE_TEMPORADA_,icono_-32(46).png,[]
2023-11-03 07:21:39.740477,03/11/2023,08:00,87,Platja de Santa Cristina,41.687872392502,2.8179909180553,Fora de temporada,_FORA_DE_TEMPORADA_,icono_-32(46).png,[]
2023-11-03 07:21:41.178338,03/11/2023,08:00,88,Cala de Sant Francesc,41.678793861428,2.8073596508894,Fora de temporada,_FORA_DE_TEMPORADA_,icono_-32(46).png,[]
2023-11-03 07:21:42.694284,03/11/2023,08:00,89,Platja de Blanes,41.673644217732,2.7932230707804,Fora de temporada,_FORA_DE_TEMPORADA_,icono_-32(46).png,[]
2023-11-03 07:21:44.449107,03/11/2023,08:00,90,Platja de s'Abanell,41.661376426198,2.7834371218386,Fora de temporada,_FORA_DE_TEMPORADA_,icono_-32(46).png,[]
2023-11-03 07:21:45.901422,03/11/2023,08:00,91,Platja de la Punta de la Tordera- de la Conca,41.649147111322,2.7753359991846,Fora de temporada,_FORA_DE_TEMPORADA_,icono_-32(46).png,[]
2023-11-03 07:21:48.116892,03/11/2023,08:00,93,Platja de Malgrat Centre,41.636775719344,2.7312784550594,Fora de temporada,_FORA_DE_TEMPORADA_,icono_-32(46).png,[]
2023-11-03 07:21:49.589843,03/11/2023,08:00,94,Platja de l'Astillero,41.636775719344,2.7312784550594,Fora de temporada,_FORA_DE_TEMPORADA_,icono_-32(46).png,[]
2023-11-03 07:21:51.006441,03/11/2023,08:00,95,Platja de Llevant - les Caletes,41.629016946748,2.714851506193,Fora de temporada,_FORA_DE_TEMPORADA_,icono_-32(46).png,[]
2023-11-03 07:21:52.394844,03/11/2023,08:00,96,Platja de les Dunes,41.629016738266,2.7147674705051,Fora de temporada,_FORA_DE_TEMPORADA_,icono_-32(46).png,[]
2023-11-03 07:21:53.823440,03/11/2023,08:00,97,Platja dels Pins,41.623467631667,2.7003508749835,Fora de temporada,_FORA_DE_TEMPORADA_,icono_-32(46).png,[]
2023-11-03 07:21:55.247451,03/11/2023,08:00,98,Platja dels Pescadors,41.616694804155,2.6772885679023,Fora de temporada,_FORA_DE_TEMPORADA_,icono_-32(46).png,[]
2023-11-03 07:21:57.640738,03/11/2023,08:00,100,Platja del Poblenou- la Riera,41.616694804155,2.6772885679023,Fora de temporada,_FORA_DE_TEMPORADA_,icono_-32(46).png,[]
2023-11-03 07:21:59.144147,03/11/2023,08:00,101,Platja Gran,0.0,-1.4887438971664,Fora de temporada,_FORA_DE_TEMPORADA_,icono_-32(46).png,[]
2023-11-03 07:22:00.603168,03/11/2023,08:00,102,Platja de Garbí,41.610197915626,2.6546736782755,Fora de temporada,_FORA_DE_TEMPORADA_,icono_-32(46).png,[]
2023-11-03 07:22:03.389637,03/11/2023,08:00,104,Platja de la Platjola i el Morer,41.6029153155,2.6299917264038,Fora de temporada,_FORA_DE_TEMPORADA_,icono_-32(46).png,[]
2023-11-03 07:22:05.657845,03/11/2023,08:00,106,Platja de les Barques,41.600942954914,2.6245069877988,Fora de temporada,_FORA_DE_TEMPORADA_,icono_-32(46).png,[]
2023-11-03 07:22:07.154954,03/11/2023,08:00,107,Platja de Can Villar,41.597751116242,2.6153459333312,Fora de temporada,_FORA_DE_TEMPORADA_,icono_-32(46).png,[]
2023-11-03 07:22:11.424703,03/11/2023,08:00,110,Platja de Canet,41.588061686279,2.5874609909206,Fora de temporada,_FORA_DE_TEMPORADA_,icono_-32(46).png,[]
2023-11-03 07:22:12.903583,03/11/2023,08:00,111,Platja de Cavaió,41.583795643622,2.5760191775077,Fora de temporada,_FORA_DE_TEMPORADA_,icono_-32(46).png,[]
2023-11-03 07:22:14.404733,03/11/2023,08:00,112,Platja de Cavaió,41.580455660735,2.5668159401585,Fora de temporada,_FORA_DE_TEMPORADA_,icono_-32(46).png,[]
2023-11-03 07:22:15.942494,03/11/2023,08:00,113,Platja de la Picòrdia,41.57634375796,2.5446518439592,Fora de temporada,_FORA_DE_TEMPORADA_,icono_-32(46).png,[]
2023-11-03 07:22:18.296695,03/11/2023,08:00,115,Platja de la Musclera,41.570409747343,2.5338626246285,Fora de temporada,_FORA_DE_TEMPORADA_,icono_-32(46).png,[]
2023-11-03 07:22:19.792948,03/11/2023,08:00,116,Platja del Kalima,41.568987063337,2.5295549831514,Fora de temporada,_FORA_DE_TEMPORADA_,icono_-32(46).png,[]
2023-11-03 07:22:21.507831,03/11/2023,08:00,117,Platja dels Tres Micos,41.567275547635,2.5251417013465,Fora de temporada,_FORA_DE_TEMPORADA_,icono_-32(46).png,[]
2023-11-03 07:22:23.012535,03/11/2023,08:00,118,Platja de Sant Vicenç,41.564019930101,2.5176938008672,Fora de temporada,_FORA_DE_TEMPORADA_,icono_-32(46).png,[]
2023-11-03 07:22:24.644058,03/11/2023,08:00,119,Platja de les Barques - l'Estació,41.556410809602,2.5012857035747,Fora de temporada,_FORA_DE_TEMPORADA_,icono_-32(46).png,[]
2023-11-03 07:22:26.947700,03/11/2023,08:00,121,Platja de Sant Simó,41.542009693885,2.4597702805891,Fora de temporada,_FORA_DE_TEMPORADA_,icono_-32(46).png,[]
2023-11-03 07:22:28.584195,03/11/2023,08:00,122,Platja del Callao,41.539106875639,2.4554306108427,Fora de temporada,_FORA_DE_TEMPORADA_,icono_-32(46).png,[]
2023-11-03 07:22:30.061412,03/11/2023,08:00,123,Platja del Varador,41.535309226105,2.4504755263813,Fora de temporada,_FORA_DE_TEMPORADA_,icono_-32(46).png,[]
2023-11-03 07:22:31.606897,03/11/2023,08:00,124,Platja de Ponent,41.52876774771,2.4406898650633,Fora de temporada,_FORA_DE_TEMPORADA_,icono_-32(46).png,[]
2023-11-03 07:22:33.991937,03/11/2023,08:00,126,Platja de Cabrera (Vinyals),41.507465534542,2.4048412901368,Fora de temporada,_FORA_DE_TEMPORADA_,icono_-32(46).png,[]
2023-11-03 07:22:36.317072,03/11/2023,08:00,128,Platja de l'Astillero - l'Almadrava,41.504417987185,2.3990578680924,Fora de temporada,_FORA_DE_TEMPORADA_,icono_-32(46).png,[]
2023-11-03 07:22:37.893718,03/11/2023,08:00,129,Platja de Ponent,41.498057623062,2.3852067867651,Fora de temporada,_FORA_DE_TEMPORADA_,icono_-32(46).png,[]
2023-11-03 07:22:39.445846,03/11/2023,08:00,130,Platja de Llevant,0.0,-1.4887438971664,Fora de temporada,_FORA_DE_TEMPORADA_,icono_-32(46).png,[]
2023-11-03 07:22:42.634031,03/11/2023,08:00,133,Platja del Pla de l'Ós- Descàrrega,41.487626235325,2.3554417154751,Fora de temporada,_FORA_DE_TEMPORADA_,icono_-32(46).png,[]
2023-11-03 07:22:45.285945,03/11/2023,08:00,135,Platja d'Ocata,41.477684685782,2.3199200941791,Fora de temporada,_FORA_DE_TEMPORADA_,icono_-32(46).png,[]
2023-11-03 07:22:46.762294,03/11/2023,08:00,136,Platja del Masnou,41.475108951044,2.3049162639625,Fora de temporada,_FORA_DE_TEMPORADA_,icono_-32(46).png,[]
2023-11-03 07:22:48.253421,03/11/2023,08:00,137,Platja de Monsolís -les Barques,41.468406238555,2.287060600628,Fora de temporada,_FORA_DE_TEMPORADA_,icono_-32(46).png,[]
2023-11-03 07:22:50.464540,03/11/2023,08:00,139,Platja de les Roques,41.464399760381,2.2772492978992,Fora de temporada,_FORA_DE_TEMPORADA_,icono_-32(46).png,[]
2023-11-03 07:22:52.734267,03/11/2023,08:00,141,Platja de Cristall,41.454099780717,2.2595480957504,Fora de temporada,_FORA_DE_TEMPORADA_,icono_-32(46).png,[]
2023-11-03 07:22:55.003770,03/11/2023,08:00,143,Platja dels Pescadors,41.446569998148,2.2512656852142,Fora de temporada,_FORA_DE_TEMPORADA_,icono_-32(46).png,[]
2023-11-03 07:22:58.975547,03/11/2023,08:00,147,Platja de Coco,41.438701968931,2.2450599158731,Fora de temporada,_FORA_DE_TEMPORADA_,icono_-32(46).png,[]
2023-11-03 07:23:01.148513,03/11/2023,08:00,149,Platja del Litoral,41.421982291685,2.2352372980518,Fora de temporada,_FORA_DE_TEMPORADA_,icono_-32(46).png,[]
2023-11-03 07:23:02.787608,03/11/2023,08:00,150,Platja del Fòrum,41.416807060406,2.2317919861506,Fora de temporada,_FORA_DE_TEMPORADA_,icono_-32(46).png,[]
2023-11-03 07:23:04.229068,03/11/2023,08:00,151,Zona de Banys Fòrum,41.409775136883,2.2268496750303,Fora de temporada,_FORA_DE_TEMPORADA_,icono_-32(46).png,[]
2023-11-03 07:23:05.743825,03/11/2023,08:00,152,Platja de Llevant,41.404818309454,2.2184500675217,Fora de temporada,_FORA_DE_TEMPORADA_,icono_-32(46).png,[]
2023-11-03 07:23:07.249938,03/11/2023,08:00,153,Platja de la Nova Mar Bella,41.401868963879,2.2152314154427,Fora de temporada,_FORA_DE_TEMPORADA_,icono_-32(46).png,[]
2023-11-03 07:23:08.800500,03/11/2023,08:00,154,Platja de la Mar Bella,41.39828815496,2.211889092231,Fora de temporada,_FORA_DE_TEMPORADA_,icono_-32(46).png,[]
2023-11-03 07:23:10.299154,03/11/2023,08:00,155,Platja del Bogatell,41.394117638021,2.2066404017632,Fora de temporada,_FORA_DE_TEMPORADA_,icono_-32(46).png,[]
2023-11-03 07:23:11.775516,03/11/2023,08:00,156,Platja de la Nova Icària,41.390467569537,2.2024385871148,Fora de temporada,_FORA_DE_TEMPORADA_,icono_-32(46).png,[]
2023-11-03 07:23:13.280061,03/11/2023,08:00,157,Platja del Somorrostro,41.382120638522,2.1951136878575,Fora de temporada,_FORA_DE_TEMPORADA_,icono_-32(46).png,[]
2023-11-03 07:23:14.803756,03/11/2023,08:00,158,Platja de la Barceloneta,41.380574709835,2.1943075589302,Fora de temporada,_FORA_DE_TEMPORADA_,icono_-32(46).png,[]
2023-11-03 07:23:16.293749,03/11/2023,08:00,159,Platja de Sant Miquel,41.376248597736,2.1913832829702,Fora de temporada,_FORA_DE_TEMPORADA_,icono_-32(46).png,[]
2023-11-03 07:23:17.876449,03/11/2023,08:00,160,Platja de Sant Sebastià,41.372327471678,2.1896979659343,Fora de temporada,_FORA_DE_TEMPORADA_,icono_-32(46).png,[]
2023-11-03 07:23:20.239620,03/11/2023,08:00,162,Platja del Remolar- Pineda de Cal Francès,41.275028516373,2.0662013319061,Fora de temporada,_FORA_DE_TEMPORADA_,icono_-32(46).png,[]
2023-11-03 07:23:21.909129,03/11/2023,08:00,163,Platja de Gavà,41.26581617619,2.0199046987666,Fora de temporada,_FORA_DE_TEMPORADA_,icono_-32(46).png,[]
2023-11-03 07:23:23.327740,03/11/2023,08:00,164,Platja de la Pineda,41.263958952309,1.9925827273801,Fora de temporada,_FORA_DE_TEMPORADA_,icono_-32(46).png,[]
2023-11-03 07:23:24.891840,03/11/2023,08:00,165,Platja de les Lluminetes,41.264006354566,1.9754988576444,Fora de temporada,_FORA_DE_TEMPORADA_,icono_-32(46).png,[]
2023-11-03 07:23:26.637025,03/11/2023,08:00,166,Platja del Baixador,41.263775689677,1.9479260266039,Fora de temporada,_FORA_DE_TEMPORADA_,icono_-32(46).png,[]
2023-11-03 07:23:28.098566,03/11/2023,08:00,167,Platja de les Botigues,41.261775734073,1.9332153443612,Fora de temporada,_FORA_DE_TEMPORADA_,icono_-32(46).png,[]
2023-11-03 07:23:29.576557,03/11/2023,08:00,168,Platja del Garraf,41.252746506686,1.8079767382934,Fora de temporada,_FORA_DE_TEMPORADA_,icono_-32(46).png,[]
2023-11-03 07:23:31.009737,03/11/2023,08:00,169,Platja d'Aiguadolç,41.236223044103,1.827810941185,Fora de temporada,_FORA_DE_TEMPORADA_,icono_-32(46).png,[]
2023-11-03 07:23:32.484083,03/11/2023,08:00,170,Platja dels Balmins,41.23580612582,1.8205036540361,Fora de temporada,_FORA_DE_TEMPORADA_,icono_-32(46).png,[]
2023-11-03 07:23:33.888256,03/11/2023,08:00,171,Platja de Sant Sebastià,41.236205881866,1.8146971481653,Fora de temporada,_FORA_DE_TEMPORADA_,icono_-32(46).png,[]
2023-11-03 07:23:36.128448,03/11/2023,08:00,173,Platja de la Ribera,41.234365209654,1.8082868978651,Fora de temporada,_FORA_DE_TEMPORADA_,icono_-32(46).png,[]
2023-11-03 07:23:38.440247,03/11/2023,08:00,175,Platja de l'Estanyol,41.231825008401,1.7996107795283,Fora de temporada,_FORA_DE_TEMPORADA_,icono_-32(46).png,[]
2023-11-03 07:23:40.787991,03/11/2023,08:00,177,Platja de la Barra,41.228099902123,1.7922457424675,Fora de temporada,_FORA_DE_TEMPORADA_,icono_-32(46).png,[]
2023-11-03 07:23:42.254086,03/11/2023,08:00,178,Platja de Terramar,41.226462424175,1.789853891713,Fora de temporada,_FORA_DE_TEMPORADA_,icono_-32(46).png,[]
2023-11-03 07:23:44.582165,03/11/2023,08:00,180,Platja del Far de S. Cristòfol,41.215502334745,1.7388568480942,Fora de temporada,_FORA_DE_TEMPORADA_,icono_-32(46).png,[]
2023-11-03 07:23:46.212407,03/11/2023,08:00,181,Platja de Ribes-roges,41.211943848511,1.724909456349,Fora de temporada,_FORA_DE_TEMPORADA_,icono_-32(46).png,[]
2023-11-03 07:23:47.686079,03/11/2023,08:00,182,Platja d'Adarró,41.21134545456,1.7164520717704,Fora de temporada,_FORA_DE_TEMPORADA_,icono_-32(46).png,[]
2023-11-03 07:23:49.274009,03/11/2023,08:00,183,Platja de Sant Gervasi,41.210005976146,1.7118502189238,Fora de temporada,_FORA_DE_TEMPORADA_,icono_-32(46).png,[]
2023-11-03 07:23:51.616710,03/11/2023,08:00,185,Platja d'Ibersol,41.203626928879,1.6854025178517,Fora de temporada,_FORA_DE_TEMPORADA_,icono_-32(46).png,[]
2023-11-03 07:23:53.156593,03/11/2023,08:00,186,Platja Llarga,41.201178681595,1.6808360382307,Fora de temporada,_FORA_DE_TEMPORADA_,icono_-32(46).png,[]
2023-11-03 07:23:54.568779,03/11/2023,08:00,187,Platja de la Mota de Sant Pere,41.197974673287,1.6701076058795,Fora de temporada,_FORA_DE_TEMPORADA_,icono_-32(46).png,[]
2023-11-03 07:23:56.005552,03/11/2023,08:00,188,Platja de les Salines,41.195944207291,1.6573647433448,Fora de temporada,_FORA_DE_TEMPORADA_,icono_-32(46).png,[]
2023-11-03 07:23:57.441625,03/11/2023,08:00,189,Platja de les Gavines,41.19499223244,1.6460672206857,Fora de temporada,_FORA_DE_TEMPORADA_,icono_-32(46).png,[]
2023-11-03 07:23:58.877737,03/11/2023,08:00,190,Platja de Cunit Llevant,41.192959639893,1.6348878850593,Fora de temporada,_FORA_DE_TEMPORADA_,icono_-32(46).png,[]
2023-11-03 07:24:00.573281,03/11/2023,08:00,191,Platja de Segur de Calafell,41.188801150808,1.6006211928006,Fora de temporada,_FORA_DE_TEMPORADA_,icono_-32(46).png,[]
2023-11-03 07:24:02.063109,03/11/2023,08:00,192,Platja de l'Estany-Mas Mel,41.188150495747,1.5886396250873,Fora de temporada,_FORA_DE_TEMPORADA_,icono_-32(46).png,[]
2023-11-03 07:24:03.848150,03/11/2023,08:00,193,Platja de Calafell,41.18625839246,1.5710692123581,Fora de temporada,_FORA_DE_TEMPORADA_,icono_-32(46).png,[]
2023-11-03 07:24:05.560159,03/11/2023,08:00,194,Platja de Sant Salvador,41.182994372502,1.5427755564115,Fora de temporada,_FORA_DE_TEMPORADA_,icono_-32(46).png,[]
2023-11-03 07:24:07.232871,03/11/2023,08:00,195,Platja de Coma-ruga,41.180449389316,1.5240064481359,Fora de temporada,_FORA_DE_TEMPORADA_,icono_-32(46).png,[]
2023-11-03 07:24:08.636140,03/11/2023,08:00,196,Platja del Francàs,41.17535494276,1.5026740533088,Fora de temporada,_FORA_DE_TEMPORADA_,icono_-32(46).png,[]
2023-11-03 07:24:10.118247,03/11/2023,08:00,197,Platja de la Costa Daurada,41.170338915321,1.4889723359421,Fora de temporada,_FORA_DE_TEMPORADA_,icono_-32(46).png,[]
2023-11-03 07:24:14.570327,03/11/2023,08:00,200,Platja Llarga,41.165614769917,1.4661712099269,Fora de temporada,_FORA_DE_TEMPORADA_,icono_-32(46).png,[]
2023-11-03 07:24:16.339233,03/11/2023,08:00,201,Platja de Creixell,41.156025386379,1.4422848019115,Fora de temporada,_FORA_DE_TEMPORADA_,icono_-32(46).png,[]
2023-11-03 07:24:17.872091,03/11/2023,08:00,202,Platja dels Muntanyans,41.146268399657,1.4196724944992,Fora de temporada,_FORA_DE_TEMPORADA_,icono_-32(46).png,[]
2023-11-03 07:24:19.328992,03/11/2023,08:00,203,Platja del Barri Marítim,41.143486934269,1.4132571728329,Fora de temporada,_FORA_DE_TEMPORADA_,icono_-32(46).png,[]
2023-11-03 07:24:20.861306,03/11/2023,08:00,204,Platja de la Paella,41.139913156509,1.4062419906541,Fora de temporada,_FORA_DE_TEMPORADA_,icono_-32(46).png,[]
2023-11-03 07:24:22.244099,03/11/2023,08:00,205,Platja del Canyadell,41.132349213814,1.3902225852882,Fora de temporada,_FORA_DE_TEMPORADA_,icono_-32(46).png,[]
2023-11-03 07:24:23.845977,03/11/2023,08:00,206,Platja d'Altafulla,41.134370623023,1.3821312252341,Fora de temporada,_FORA_DE_TEMPORADA_,icono_-32(46).png,[]
2023-11-03 07:24:26.188971,03/11/2023,08:00,208,Platja de Tamarit,41.130248549515,1.3626114471976,Fora de temporada,_FORA_DE_TEMPORADA_,icono_-32(46).png,[]
2023-11-03 07:24:28.607005,03/11/2023,08:00,210,Platja de la Móra,41.127944515602,1.3469796024841,Fora de temporada,_FORA_DE_TEMPORADA_,icono_-32(46).png,[]
2023-11-03 07:24:32.033922,03/11/2023,08:00,213,Platja Llarga,41.128624032857,1.3038855528765,Fora de temporada,_FORA_DE_TEMPORADA_,icono_-32(46).png,[]
2023-11-03 07:24:35.881515,03/11/2023,08:00,217,Platja de la Savinosa,41.12271312207,1.2848955466845,Fora de temporada,_FORA_DE_TEMPORADA_,icono_-32(46).png,[]
2023-11-03 07:24:37.361431,03/11/2023,08:00,218,Platja de l'Arrabassada,41.118954578696,1.2762864073596,Fora de temporada,_FORA_DE_TEMPORADA_,icono_-32(46).png,[]
2023-11-03 07:24:38.829302,03/11/2023,08:00,219,Platja del Miracle,41.114194509063,1.2622258835189,Fora de temporada,_FORA_DE_TEMPORADA_,icono_-32(46).png,[]
2023-11-03 07:24:41.313140,03/11/2023,08:00,221,Platja de la Pineda,41.079563052673,1.1852750478943,Fora de temporada,_FORA_DE_TEMPORADA_,icono_-32(46).png,[]
2023-11-03 07:24:42.666811,03/11/2023,08:00,222,Platja del Racó,41.067382250887,1.1793974070461,Fora de temporada,_FORA_DE_TEMPORADA_,icono_-32(46).png,[]
2023-11-03 07:24:44.183237,03/11/2023,08:00,223,Cala Crancs,41.056423516786,1.1676809900815,Fora de temporada,_FORA_DE_TEMPORADA_,icono_-32(46).png,[]
2023-11-03 07:24:47.294323,03/11/2023,08:00,225,Platja Llarga,41.065320748526,1.1551280211854,Fora de temporada,_FORA_DE_TEMPORADA_,icono_-32(46).png,[]
2023-11-03 07:24:48.868763,03/11/2023,08:00,226,Platja Capellans,41.068271974443,1.1481900575559,Fora de temporada,_FORA_DE_TEMPORADA_,icono_-32(46).png,[]
2023-11-03 07:24:50.610681,03/11/2023,08:00,227,Platja de Llevant,41.073477083085,1.1352723017828,Fora de temporada,_FORA_DE_TEMPORADA_,icono_-32(46).png,[]
2023-11-03 07:24:52.131647,03/11/2023,08:00,228,Platja de Ponent,41.074876509675,1.1254841914737,Fora de temporada,_FORA_DE_TEMPORADA_,icono_-32(46).png,[]
2023-11-03 07:24:53.705564,03/11/2023,08:00,229,Platja del Cap de Sant Pere,41.072324958385,1.1142969062962,Fora de temporada,_FORA_DE_TEMPORADA_,icono_-32(46).png,[]
2023-11-03 07:24:55.146453,03/11/2023,08:00,230,Platja de Vilafortuny,41.069865092566,1.1021794964984,Fora de temporada,_FORA_DE_TEMPORADA_,icono_-32(46).png,[]
2023-11-03 07:24:56.511124,03/11/2023,08:00,231,Platja de l'Esquirol,41.066622925891,1.0923945279686,Fora de temporada,_FORA_DE_TEMPORADA_,icono_-32(46).png,[]
2023-11-03 07:24:57.868541,03/11/2023,08:00,232,Platja de Cavet,41.064245472214,1.0799552714078,Fora de temporada,_FORA_DE_TEMPORADA_,icono_-32(46).png,[]
2023-11-03 07:24:59.420913,03/11/2023,08:00,233,Platja del Prat d'en Forés-Regueral,41.065828136459,1.0690195243151,Fora de temporada,_FORA_DE_TEMPORADA_,icono_-32(46).png,[]
2023-11-03 07:25:00.808767,03/11/2023,08:00,234,Platja de la Riera,41.063580585685,1.0558872062892,Fora de temporada,_FORA_DE_TEMPORADA_,icono_-32(46).png,[]
2023-11-03 07:25:02.288076,03/11/2023,08:00,235,Platja de l'Horta de Santa Maria,41.064091512848,1.0525398813016,Fora de temporada,_FORA_DE_TEMPORADA_,icono_-32(46).png,[]
2023-11-03 07:25:03.800130,03/11/2023,08:00,236,Platja de la Llosa,41.063205543692,1.0464966148408,Fora de temporada,_FORA_DE_TEMPORADA_,icono_-32(46).png,[]
2023-11-03 07:25:05.334104,03/11/2023,08:00,237,Platja de l'Estany,41.269665774965,2.0427818633591,Fora de temporada,_FORA_DE_TEMPORADA_,icono_-32(46).png,[]
2023-11-03 07:25:07.112801,03/11/2023,08:00,238,Platja de l'Ardiaca,41.055755147124,1.0294986163483,Fora de temporada,_FORA_DE_TEMPORADA_,icono_-32(46).png,[]
2023-11-03 07:25:09.543466,03/11/2023,08:00,240,Platja de la Pixerota,41.044851709882,1.0056840642434,Fora de temporada,_FORA_DE_TEMPORADA_,icono_-32(46).png,[]
2023-11-03 07:25:11.173035,03/11/2023,08:00,241,Platja de la Porquerola,41.034623237399,0.97697954842933,Fora de temporada,_FORA_DE_TEMPORADA_,icono_-32(46).png,[]
2023-11-03 07:25:12.640254,03/11/2023,08:00,242,Platja de la Casa dels lladres,41.027906541309,0.96588557309922,Fora de temporada,_FORA_DE_TEMPORADA_,icono_-32(46).png,[]
2023-11-03 07:25:14.231018,03/11/2023,08:00,243,Cala del Vienesos-platja dels Espenyals,41.01652868413,0.95207202879475,Fora de temporada,_FORA_DE_TEMPORADA_,icono_-32(46).png,[]
2023-11-03 07:25:15.791974,03/11/2023,08:00,244,Platja Cristall,40.999130619831,0.93615625673566,Fora de temporada,_FORA_DE_TEMPORADA_,icono_-32(46).png,[]
2023-11-03 07:25:17.498179,03/11/2023,08:00,245,Platja de la Punta del riu,40.990535680876,0.93052815890304,Fora de temporada,_FORA_DE_TEMPORADA_,icono_-32(46).png,[]
2023-11-03 07:25:19.023418,03/11/2023,08:00,246,Platja de l'Arenal,40.987613406623,0.91582017449322,Fora de temporada,_FORA_DE_TEMPORADA_,icono_-32(46).png,[]
2023-11-03 07:25:20.598029,03/11/2023,08:00,247,Platja del Torn,40.97002027231,0.89343823361539,Fora de temporada,_FORA_DE_TEMPORADA_,icono_-32(46).png,[]
2023-11-03 07:25:22.145443,03/11/2023,08:00,248,Platja de l'Almadrava,40.939182506783,0.85796416867759,Fora de temporada,_FORA_DE_TEMPORADA_,icono_-32(46).png,[]
2023-11-03 07:25:23.803841,03/11/2023,08:00,249,Cala Calafató,40.9221357093,0.84129581336596,Fora de temporada,_FORA_DE_TEMPORADA_,icono_-32(46).png,[]
2023-11-03 07:25:25.421665,03/11/2023,08:00,250,Platja Sant Jordi d'Alfama,40.912094315636,0.83227822778743,Fora de temporada,_FORA_DE_TEMPORADA_,icono_-32(46).png,[]
2023-11-03 07:25:27.030946,03/11/2023,08:00,251,Cala Forn,40.908272916148,0.8264192381245,Fora de temporada,_FORA_DE_TEMPORADA_,icono_-32(46).png,[]
2023-11-03 07:25:28.657752,03/11/2023,08:00,252,Platja de Pixavaques,40.886862404168,0.80693133925294,Fora de temporada,_FORA_DE_TEMPORADA_,icono_-32(46).png,[]
2023-11-03 07:25:30.318132,03/11/2023,08:00,253,Platja de l'Alguer,40.88446739366,0.80556249285564,Fora de temporada,_FORA_DE_TEMPORADA_,icono_-32(46).png,[]
2023-11-03 07:25:35.072339,03/11/2023,08:00,256,Platja de Santa Llúcia,40.827900375872,0.74165134235169,Fora de temporada,_FORA_DE_TEMPORADA_,icono_-32(46).png,[]
2023-11-03 07:25:38.070551,03/11/2023,08:00,258,Platja del Cap Roig,40.821794398082,0.73252699060494,Fora de temporada,_FORA_DE_TEMPORADA_,icono_-32(46).png,[]
2023-11-03 07:25:39.520884,03/11/2023,08:00,259,Platja de les Avellanes,40.812628169567,0.71490187254377,Fora de temporada,_FORA_DE_TEMPORADA_,icono_-32(46).png,[]
2023-11-03 07:25:40.904541,03/11/2023,08:00,260,Platja de l'Arenal,40.793456626705,0.70428834230694,Fora de temporada,_FORA_DE_TEMPORADA_,icono_-32(46).png,[]
2023-11-03 07:25:42.548662,03/11/2023,08:00,261,Platja de la Marquesa,40.760417999771,0.80049202793842,Fora de temporada,_FORA_DE_TEMPORADA_,icono_-32(46).png,[]
2023-11-03 07:25:45.439649,03/11/2023,08:00,263,Platja de Riumar,40.730702029048,0.84200315331873,Fora de temporada,_FORA_DE_TEMPORADA_,icono_-32(46).png,[]
2023-11-03 07:25:48.370388,03/11/2023,08:00,265,Platja del Serrallo,40.67042521796,0.8272794665772,Fora de temporada,_FORA_DE_TEMPORADA_,icono_-32(46).png,[]
2023-11-03 07:25:51.377196,03/11/2023,08:00,267,Platja del Trabucador,40.623105864166,0.7385655924494,Fora de temporada,_FORA_DE_TEMPORADA_,icono_-32(46).png,[]
2023-11-03 07:25:54.319229,03/11/2023,08:00,269,Platja del Parc de Garbí,40.613661853592,0.59271661145727,Fora de temporada,_FORA_DE_TEMPORADA_,icono_-32(46).png,[]
2023-11-03 07:25:59.967754,03/11/2023,08:00,275,Platja de les Delícies,40.606377946137,0.58381861583436,Fora de temporada,_FORA_DE_TEMPORADA_,icono_-32(46).png,[]
2023-11-03 07:26:02.323866,03/11/2023,08:00,277,Platja de la Martinenca,40.572927028126,0.54682037719963,Fora de temporada,_FORA_DE_TEMPORADA_,icono_-32(46).png,[]
2023-11-03 07:26:03.805387,03/11/2023,08:00,278,Platja del Maricel,40.568761058929,0.53983812944421,Fora de temporada,_FORA_DE_TEMPORADA_,icono_-32(46).png,[]
2023-11-03 07:26:05.496098,03/11/2023,08:00,279,Platja de les Cases d'Alcanar-Marjal,40.545226788511,0.5243696664454,Fora de temporada,_FORA_DE_TEMPORADA_,icono_-32(46).png,[]
